property_address,property_name,building_class,building_status,rba_sf,total_available_space_sf,rent_sf_yr,secondary_type,city,percent_leased,year_built,year_renovated,typical_floor_size_sf,parking_ratio,ceiling_height_raw,column_spacing,number_loading_docks,power,rail_lines,sewer,building_operating_expenses,capacity_available_kw,direct_available_space_sf,direct_vacant_space_sf,drive_ins,sprinklers,water,parking_spaces,latitude,longitude,source_state,source_file,source_row,candidate_id,building_status_normalized,is_directly_usable_by_status,is_pipeline_or_proxy_by_status,availability_class,usable_available_space_sf,has_listed_available_space,meets_min_available_space_20k,is_logistics_related_type,has_valid_coordinates,facility_name,is_primary_regional_hub_candidate,county_fips,county_name,county_state,region_id,county_throughput_ktons,region_state
60 Maple St,,B,Existing,227166,150773.0,$8.92 - 10.91 (Est.),Distribution,Mansfield,52.06,1968.0,,227166.0,1.06,"21'6""",40'w x 40'd,12.0,1800a/220-480v 3p,CSX,City,2025 Tax @ $0.7640/sf,,150773.0,108893,"2/10'0""w x 12'0""h",Wet,City,233.0,42.0441116,-71.2072797,MA,MA.csv,1,T4-MA-00001,existing,True,False,direct_existing_facility,150773.0,True,True,True,True,"60 Maple St, Mansfield, MA",True,25005,Bristol,MA,33,14111.7303778516,MA
53 Ayer Rd,,B,Existing,374270,92000.0,$6.50 - 7.95 (Est.),Warehouse,Littleton,75.42,1965.0,2022.0,374270.0,0.52,"38'0""",,8.0,,,,,,92000.0,92000,12,,,200.0,42.5466949,-71.5170479,MA,MA.csv,2,T4-MA-00002,existing,True,False,direct_existing_facility,92000.0,True,True,True,True,"53 Ayer Rd, Littleton, MA",True,25017,Middlesex,MA,16,37219.47229475793,MA
1 Ace St,,C,Existing,283000,66750.0,$6.00 - 12.00,Warehouse,Fall River,76.41,1890.0,1990.0,83333.0,0.3,"30'0""",,5.0,3p,,,,,66750.0,66750,"1/10'0""w x 10'0""h",Wet,Yes,75.0,41.725966,-71.1442809,MA,MA.csv,3,T4-MA-00003,existing,True,False,direct_existing_facility,66750.0,True,True,True,True,"1 Ace St, Fall River, MA",True,25005,Bristol,MA,33,14111.7303778516,MA
11 Berkshire St,,C,Existing,350000,54000.0,$6.00,Warehouse,Holyoke,84.57,1934.0,,80000.0,0.34,"11'0""",,11.0,Heavy,,,2025 Tax @ $0.0195/sf,,54000.0,54000,Yes,,,100.0,42.1935451,-72.6153534,MA,MA.csv,4,T4-MA-00004,existing,True,False,direct_existing_facility,54000.0,True,True,True,True,"11 Berkshire St, Holyoke, MA",True,25013,Hampden,MA,39,15018.342585545664,MA
10-14 New Bond St,,B,Existing,319187,54000.0,$6.75,Warehouse,Worcester,100.0,1901.0,2017.0,319187.0,0.94,"30'0""",20'w x 30'd,20.0,4000a/480v 3p,,City,2025 Tax @ $1.2040/sf,,54000.0,0,3,Wet,City,262.0,42.3070435,-71.8025838,MA,MA.csv,5,T4-MA-00005,existing,True,False,direct_existing_facility,54000.0,True,True,True,True,"10-14 New Bond St, Worcester, MA",True,25027,Worcester,MA,16,20016.15286549168,MA
296 Nonotuck St,Nonotuck Mill,C,Existing,205350,17728.0,$14.00 - 17.50,Warehouse,Northampton,91.37,1885.0,2019.0,50000.0,0.53,"28'0""",,6.0,400a,,Yes,2025 Tax @ $0.1456/sf,,17728.0,17728,"7/8'0""w x 8'0""h",Wet,Yes,80.0,42.329784,-72.676114,MA,MA.csv,6,T4-MA-00006,existing,True,False,direct_existing_facility,17728.0,True,False,True,True,Nonotuck Mill,False,25015,Hampshire,MA,39,4829.097795020121,MA
2341 Providence Rd,,C,Existing,396167,396167.0,$2.00 - 5.00,Warehouse,Northbridge,0.0,1888.0,,95000.0,0.05,,,8.0,3p,,,2025 Tax @ $0.0826/sf,,396167.0,396167,"2/10'0""w x 12'0""h",Wet,,20.0,42.1552322,-71.6530117,MA,MA.csv,7,T4-MA-00007,existing,True,False,direct_existing_facility,396167.0,True,True,True,True,"2341 Providence Rd, Northbridge, MA",True,25027,Worcester,MA,16,20016.15286549168,MA
111 Adams Rd,,B,Existing,456393,47000.0,$5.91 - 7.22 (Est.),Distribution,Clinton,89.7,1964.0,2005.0,456393.0,0.44,"28'0""",24'w x 50'd,56.0,3400-6000a/480v 3p,,City,2025 Tax @ $1.3102/sf,,47000.0,47000,"3/14'0""w x 18'0""h",Wet,City,275.0,42.4316708,-71.688632,MA,MA.csv,8,T4-MA-00008,existing,True,False,direct_existing_facility,47000.0,True,True,True,True,"111 Adams Rd, Clinton, MA",True,25027,Worcester,MA,16,20016.15286549168,MA
95 Aubuchon Dr,,B,Existing,412360,100749.0,$6.10 - 7.45 (Est.),Distribution,Westminster,75.57,1988.0,,206180.0,0.58,"26'0""",30'w x 30'd,39.0,1200-3000a,,City,2025 Tax @ $0.2686/sf,,100749.0,100749,4,ESFR,City,180.0,42.5514239,-71.9163392,MA,MA.csv,9,T4-MA-00009,existing,True,False,direct_existing_facility,100749.0,True,True,True,True,"95 Aubuchon Dr, Westminster, MA",True,25027,Worcester,MA,16,20016.15286549168,MA
1 Burlington Ave,,B,Existing,248045,57200.0,$10.76 - 13.15 (Est.),Warehouse,Wilmington,100.0,1969.0,2000.0,248045.0,3.22,"18'0""",30'w x 30'd,22.0,400a/120-480v,Boston & Maine Railroad,City,2025 Tax @ $0.8747/sf,,57200.0,0,2,Wet,City,800.0,42.5474771,-71.1759281,MA,MA.csv,10,T4-MA-00010,existing,True,False,direct_existing_facility,57200.0,True,True,True,True,"1 Burlington Ave, Wilmington, MA",True,25017,Middlesex,MA,16,37219.47229475793,MA
250 Cape Hwy,Industrial,C,Existing,218402,16175.0,$8.78 - 10.74 (Est.),Warehouse,East Taunton,100.0,1971.0,,218402.0,0.62,"30'0""",,17.0,1200a/208v 3p,,Septic Field,2025 Tax @ $0.7812/sf,,16175.0,0,9,Wet,City,135.0,41.9037274,-70.991262,MA,MA.csv,11,T4-MA-00011,existing,True,False,direct_existing_facility,16175.0,True,False,True,True,Industrial,False,25005,Bristol,MA,33,14111.7303778516,MA
157 Columbia St,Columbia Mill,C,Existing,247941,230000.0,$5.59 - 6.83 (Est.),Warehouse,Lee,100.0,1875.0,,230000.0,,"16'0""",,25.0,230-248v 3p,CSX,Yes,2025 Tax @ $0.0831/sf,,230000.0,0,Yes,Dry,Well,,42.3154254,-73.2471775,MA,MA.csv,12,T4-MA-00012,existing,True,False,direct_existing_facility,230000.0,True,True,True,True,Columbia Mill,True,25003,Berkshire,MA,39,5613.684180692198,MA
640 Crawford St,,B,Existing,223184,60000.0,$6.88 - 8.41 (Est.),Warehouse,Fitchburg,100.0,1968.0,,217000.0,1.38,"14'0""",30'w x 40'd,23.0,Heavy,Boston & Maine Railroad,Septic Field,2025 Tax @ $0.0042/sf,,60000.0,0,,Yes,City,300.0,42.554153,-71.751567,MA,MA.csv,13,T4-MA-00013,existing,True,False,direct_existing_facility,60000.0,True,True,True,True,"640 Crawford St, Fitchburg, MA",True,25027,Worcester,MA,16,20016.15286549168,MA
89 Cross St,,C,Existing,376209,90000.0,$10.56 - 12.90 (Est.),Warehouse,Holliston,76.08,1967.0,,351209.0,0.16,"60'0""",,36.0,,,,2025 Tax @ $0.5818/sf,,90000.0,90000,"2/10'0""w x 12'0""h",ESFR,,56.0,42.1833323,-71.4364974,MA,MA.csv,14,T4-MA-00014,existing,True,False,direct_existing_facility,90000.0,True,True,True,True,"89 Cross St, Holliston, MA",True,25017,Middlesex,MA,16,37219.47229475793,MA
90 Huntoon Memorial Hwy,,A,Existing,267600,267600.0,$7.80 - 9.53 (Est.),Warehouse,Leicester,0.0,2023.0,,267600.0,1.12,"36'0""",56'w x 50'd,45.0,4000a/480v 3p 4w,,City,,,267600.0,267600,3,ESFR,City,358.0,42.2053182,-71.905,MA,MA.csv,15,T4-MA-00015,existing,True,False,direct_existing_facility,267600.0,True,True,True,True,"90 Huntoon Memorial Hwy, Leicester, MA",True,25027,Worcester,MA,16,20016.15286549168,MA
5-9 Latti Farm Rd,,C,Existing,200000,320000.0,$8.20 - 10.02 (Est.),Warehouse,Millbury,100.0,1988.0,,100000.0,0.0,"27'0""",25'w x 50'd,16.0,,,City,2025 Tax @ $0.4400/sf,,200000.0,0,,Wet,City,,42.2182121,-71.7706572,MA,MA.csv,16,T4-MA-00016,existing,True,False,direct_existing_facility,320000.0,True,True,True,True,"5-9 Latti Farm Rd, Millbury, MA",True,25027,Worcester,MA,16,20016.15286549168,MA
725 Main St,,B,Existing,318995,62978.0,$8.28 - 10.12 (Est.),Distribution,Millis-Clicquot,80.26,1970.0,,318995.0,0.97,"14'0""",20'w x 62'd,29.0,1500-4000a/277-480v 3p 4w,,City,2025 Tax @ $0.2383/sf,,62978.0,62978,3,Yes,City,310.0,42.17052,-71.3537314,MA,MA.csv,17,T4-MA-00017,existing,True,False,direct_existing_facility,62978.0,True,True,True,True,"725 Main St, Millis-Clicquot, MA",True,25021,Norfolk,MA,26,17207.645056127454,MA
150 Revolutionary Dr,,A,Existing,234000,234000.0,$8.75 - 10.69 (Est.),Warehouse,Taunton,0.0,2024.0,,234000.0,1.3,"36'0""",55'w x 52'd,35.0,4000a,,City,,,234000.0,234000,2,ESFR,City,,41.86738,-71.0423214,MA,MA.csv,18,T4-MA-00018,existing,True,False,direct_existing_facility,234000.0,True,True,True,True,"150 Revolutionary Dr, Taunton, MA",True,25005,Bristol,MA,33,14111.7303778516,MA
200 Shuman Ave,,B,Existing,238872,48000.0,$4.45 - 5.44 (Est.),Warehouse,Stoughton,79.91,1980.0,2022.0,238872.0,0.59,"20'0""",31'w x 31'd,16.0,3000a/240v 3p 4w,,,2025 Tax @ $1.2376/sf,,48000.0,48000,2,Wet,,140.0,42.1168868,-71.0671545,MA,MA.csv,19,T4-MA-00019,existing,True,False,direct_existing_facility,48000.0,True,True,True,True,"200 Shuman Ave, Stoughton, MA",True,25021,Norfolk,MA,26,17207.645056127454,MA
380 S Worcester St,,A,Existing,458248,205783.0,$7.50 - 9.17 (Est.),Warehouse,Norton,68.89,1965.0,1999.0,222750.0,1.0,"22'0""",30'w x 50'd,79.0,800-3000a/120-208v 3p,,City,,,205783.0,142571,2,Wet,City,,41.939223,-71.1809117,MA,MA.csv,20,T4-MA-00020,existing,True,False,direct_existing_facility,205783.0,True,True,True,True,"380 S Worcester St, Norton, MA",True,25005,Bristol,MA,33,14111.7303778516,MA
120 Gilboa St,,C,Existing,372486,48369.0,$2.00 - 8.00,Warehouse,Douglas,100.0,1904.0,,113704.0,0.65,"20'0""",50'w,5.0,2886a/600v,,,2025 Tax @ $0.0042/sf,,48369.0,0,"2/12'0""w x 14'0""h",,,200.0,42.0839984,-71.6996346,MA,MA.csv,21,T4-MA-00021,existing,True,False,direct_existing_facility,48369.0,True,True,True,True,"120 Gilboa St, Douglas, MA",True,25027,Worcester,MA,16,20016.15286549168,MA
109 Howe St,,C,Existing,301036,174000.0,$3.00 - 5.00,Warehouse,Fall River,42.2,1912.0,,100345.0,0.07,"18'0""",11'w x 25'd,2.0,Heavy,,Yes,2025 Tax @ $0.0716/sf,,174000.0,174000,,Wet,Yes,22.0,41.678846,-71.176487,MA,MA.csv,22,T4-MA-00022,existing,True,False,direct_existing_facility,174000.0,True,True,True,True,"109 Howe St, Fall River, MA",True,25005,Bristol,MA,33,14111.7303778516,MA
475 Leominster Shirley Rd,,A,Existing,372000,,$6.90 - 8.43 (Est.),Warehouse,Lunenburg,100.0,2023.0,,372000.0,1.08,"36'0""",56'w x 50'd,71.0,4000a/480v 3p 4w,,,,,,52192,2,ESFR,,402.0,42.5419625,-71.6810145,MA,MA.csv,23,T4-MA-00023,existing,True,False,direct_existing_facility,52192.0,True,True,True,True,"475 Leominster Shirley Rd, Lunenburg, MA",True,25027,Worcester,MA,16,20016.15286549168,MA
100 Adams Rd,,A,Existing,345774,114830.0,$8.10 - 9.90 (Est.),Distribution,Clinton,84.41,1999.0,,345774.0,1.01,"32'0""",40'w x 50'd,57.0,1200-1600a/277-480v 3p 4w,,City,2025 Tax @ $2.0145/sf,,114830.0,53911,"3/12'0""w x 14'0""h",ESFR,City,350.0,42.428452,-71.690255,MA,MA.csv,24,T4-MA-00024,existing,True,False,direct_existing_facility,114830.0,True,True,True,True,"100 Adams Rd, Clinton, MA",True,25027,Worcester,MA,16,20016.15286549168,MA
135 Alden St,,C,Existing,413074,,$6.22 - 7.60 (Est.),Warehouse,Fall River,100.0,1872.0,,80000.0,0.37,"18'0""",,8.0,Heavy,,,2025 Tax @ $0.1174/sf,,,0,,Wet,,75.0,41.6883306,-71.1360186,MA,MA.csv,25,T4-MA-00025,existing,True,False,direct_existing_facility,0.0,False,False,True,True,"135 Alden St, Fall River, MA",False,25005,Bristol,MA,33,14111.7303778516,MA
340 Ballardvale St,,A,Existing,493921,,$12.60 - 15.40 (Est.),Warehouse,Andover,100.0,1969.0,1980.0,469225.0,0.36,"32'0""",40'w x 43'd,87.0,Heavy,,City,2025 Tax @ $1.8422/sf,,,0,,Wet,City,270.0,42.6069496,-71.1623339,MA,MA.csv,26,T4-MA-00026,existing,True,False,direct_existing_facility,0.0,False,False,True,True,"340 Ballardvale St, Andover, MA",False,25009,Essex,MA,17,17316.30068456367,MA
301 Bartlett St,,A,Existing,220106,,$10.89 - 13.31 (Est.),Warehouse,Northborough,100.0,2018.0,,220106.0,1.0,"32'0""",40'w x 45'd,31.0,2000a/277-480v 3p 4w,,,,,,0,Yes,ESFR,,207.0,42.3209031,-71.603274,MA,MA.csv,27,T4-MA-00027,existing,True,False,direct_existing_facility,0.0,False,False,True,True,"301 Bartlett St, Northborough, MA",False,25027,Worcester,MA,16,20016.15286549168,MA
900 Bedford St,,A,Existing,219000,178800.0,$11.16 - 13.64 (Est.),Distribution,Bridgewater,18.36,2023.0,,219000.0,0.84,"32'0""",50'w x 50'd,40.0,3000a/480v 3p,,,,,178800.0,178800,,,,184.0,41.9634274,-70.9705988,MA,MA.csv,28,T4-MA-00028,existing,True,False,direct_existing_facility,178800.0,True,True,True,True,"900 Bedford St, Bridgewater, MA",True,25023,Plymouth,MA,33,10176.999496748813,MA
1 Beeman Rd,,B,Existing,342900,195077.0,$11.12 - 13.60 (Est.),Distribution,Northborough,43.11,1983.0,,300253.0,1.15,"33'7""",29'w x 40'd,104.0,1200a/277v 3p,,Septic Field,2025 Tax @ $1.4881/sf,,195077.0,195077,"1/12'0""w x 14'0""h",Wet,,345.0,42.311862,-71.60682,MA,MA.csv,29,T4-MA-00029,existing,True,False,direct_existing_facility,195077.0,True,True,True,True,"1 Beeman Rd, Northborough, MA",True,25027,Worcester,MA,16,20016.15286549168,MA
1 Better Way,,B,Existing,293274,,$4.69 - 5.74 (Est.),Distribution,Chicopee,100.0,1990.0,,293274.0,1.36,"24'0""",50'w x 50'd,25.0,9600a/480v 3p 4w,,,2025 Tax @ $0.8176/sf,,,0,"1/12'0""w x 14'0""h",Wet,,400.0,42.2069621,-72.5531087,MA,MA.csv,30,T4-MA-00030,existing,True,False,direct_existing_facility,0.0,False,False,True,True,"1 Better Way, Chicopee, MA",False,25013,Hampden,MA,39,15018.342585545664,MA
275 Bodwell St,,A,Existing,210000,210000.0,$8.00 - 9.78 (Est.),Warehouse,Avon,100.0,1984.0,,210000.0,0.71,"25'0""",40'w x 40'd,18.0,2000a/277-480v 3p,,City,2025 Tax @ $0.0240/sf,,210000.0,0,1,Wet,City,150.0,42.1393229,-71.0611322,MA,MA.csv,31,T4-MA-00031,existing,True,False,direct_existing_facility,210000.0,True,True,True,True,"275 Bodwell St, Avon, MA",True,25021,Norfolk,MA,26,17207.645056127454,MA
39 S Broad St,,C,Existing,328528,,$5.36 - 6.55 (Est.),Warehouse,Westfield,100.0,1970.0,1980.0,328528.0,,"25'11""",49'w x 39'd,2.0,125a/480v,,City,2025 Tax @ $0.3487/sf,,,0,,Wet,City,,42.1108268,-72.7484767,MA,MA.csv,32,T4-MA-00032,existing,True,False,direct_existing_facility,0.0,False,False,True,True,"39 S Broad St, Westfield, MA",False,25013,Hampden,MA,39,15018.342585545664,MA
610 Broadway,,A,Existing,290384,,$10.53 - 12.87 (Est.),Distribution,Lawrence,100.0,1997.0,,74045.0,8.51,"31'0""",28'w x 32'd,21.0,Heavy,,City,2025 Tax @ $0.0673/sf,,,0,"2/12'0""w x 12'0""h",Wet,City,376.0,42.7159085,-71.1806926,MA,MA.csv,33,T4-MA-00033,existing,True,False,direct_existing_facility,0.0,False,False,True,True,"610 Broadway, Lawrence, MA",False,25009,Essex,MA,17,17316.30068456367,MA
95 Brook St,,A,Existing,242185,,$4.25 - 5.19 (Est.),Warehouse,New Bedford,100.0,1920.0,,48437.0,0.19,"22'0""",,,,Pennsylvania,,2025 Tax @ $0.3014/sf,,,0,"4/16'0""w x 12'0""h",,,36.0,41.6604722,-70.9323112,MA,MA.csv,34,T4-MA-00034,existing,True,False,direct_existing_facility,0.0,False,False,True,True,"95 Brook St, New Bedford, MA",False,25005,Bristol,MA,33,14111.7303778516,MA
100 Brookdale Dr,,B,Existing,239000,,$6.27 - 7.67 (Est.),Distribution,Springfield,100.0,1971.0,,239000.0,0.42,"20'0""",30'w x 36'd,23.0,1000a/480v 3p 4w,,City,,,,0,"1/12'0""w x 14'0""h",Wet,City,100.0,42.1442795,-72.5287277,MA,MA.csv,35,T4-MA-00035,existing,True,False,direct_existing_facility,0.0,False,False,True,True,"100 Brookdale Dr, Springfield, MA",False,25013,Hampden,MA,39,15018.342585545664,MA
36 Cabot Rd,,C,Existing,232994,,$12.44 - 15.20 (Est.),Warehouse,Woburn,100.0,1984.0,,232994.0,1.15,"21'6""",40'w x 45'd,24.0,4000a/480v 3p,,City,2025 Tax @ $1.8691/sf,,,0,"1/8'0""w x 8'0""h",Wet,City,336.0,42.5117827,-71.1393198,MA,MA.csv,36,T4-MA-00036,existing,True,False,direct_existing_facility,0.0,False,False,True,True,"36 Cabot Rd, Woburn, MA",False,25017,Middlesex,MA,16,37219.47229475793,MA
139 Campanelli Dr,,A,Existing,450800,450800.0,$7.80 - 9.53 (Est.),Distribution,Uxbridge,0.0,2022.0,,450800.0,0.69,"36'0""",52'w x 46'd,108.0,4000a/277-480v 3p,,County,,,450800.0,450800,"2/14'0""w x 16'0""h",ESFR,County,556.0,42.0595103,-71.6563058,MA,MA.csv,37,T4-MA-00037,existing,True,False,direct_existing_facility,450800.0,True,True,True,True,"139 Campanelli Dr, Uxbridge, MA",True,25027,Worcester,MA,16,20016.15286549168,MA
154 Campanelli Dr,NES Clothing Company,B,Existing,275000,,$11.56 - 14.13 (Est.),Distribution,Middleboro,100.0,2001.0,,259010.0,0.4,"32'0""",44'w x 40'd,40.0,,,,2025 Tax @ $0.8094/sf,,,0,1,,,110.0,41.9103417,-70.9590051,MA,MA.csv,38,T4-MA-00038,existing,True,False,direct_existing_facility,0.0,False,False,True,True,NES Clothing Company,False,25023,Plymouth,MA,33,10176.999496748813,MA
175-185 Campanelli Dr,,B,Existing,484000,,$11.70 - 14.31 (Est.),Warehouse,Braintree,100.0,1968.0,1988.0,484000.0,0.27,"22'0""",38'w x 40'd,59.0,1600a/480v 3p 4w,,Yes,2025 Tax @ $1.4826/sf,,,0,3,Wet,Yes,133.0,42.206048,-71.0322968,MA,MA.csv,39,T4-MA-00039,existing,True,False,direct_existing_facility,0.0,False,False,True,True,"175-185 Campanelli Dr, Braintree, MA",False,25021,Norfolk,MA,26,17207.645056127454,MA
100 Campanelli Pky,,B,Existing,208200,,$7.35 - 8.99 (Est.),Warehouse,Stoughton,100.0,1977.0,,200200.0,2.16,"23'4""",42'w x 36'd,29.0,1600a/480v,,,2025 Tax @ $1.1838/sf,,,0,2,Wet,,449.0,42.1131468,-71.0674048,MA,MA.csv,40,T4-MA-00040,existing,True,False,direct_existing_facility,0.0,False,False,True,True,"100 Campanelli Pky, Stoughton, MA",False,25021,Norfolk,MA,26,17207.645056127454,MA
132 Campanelli Industrial Dr,Brockton 1,B,Existing,300114,225000.0,$8.88 - 10.85 (Est.),Distribution,Brockton,25.03,1967.0,2008.0,300114.0,1.33,"21'0""",30'w x 34'd,37.0,2000a/277-480v,,City,2025 Tax @ $1.1289/sf,,225000.0,225000,1,Wet,City,400.0,42.0988591,-71.0538065,MA,MA.csv,41,T4-MA-00041,existing,True,False,direct_existing_facility,225000.0,True,True,True,True,Brockton 1,True,25023,Plymouth,MA,33,10176.999496748813,MA
20 Canal St,,C,Existing,218240,,$7.92 - 9.68 (Est.),Warehouse,Turners Falls,100.0,1890.0,,60320.0,0.02,,,4.0,,,,,,,0,"3/8'0""w x 10'0""h",Dry,,6.0,42.610463,-72.558201,MA,MA.csv,42,T4-MA-00042,existing,True,False,direct_existing_facility,0.0,False,False,True,True,"20 Canal St, Turners Falls, MA",False,25011,Franklin,MA,10,3042.4379551992297,MA
333 Canal St,,C,Existing,200000,,$5.99 - 7.33 (Est.),Warehouse,Holyoke,100.0,1880.0,,200000.0,,,,6.0,,,,2025 Tax @ $0.3086/sf,,,0,"4/10'0""w x 16'0""h",,,60.0,42.201728,-72.597179,MA,MA.csv,43,T4-MA-00043,existing,True,False,direct_existing_facility,0.0,False,False,True,True,"333 Canal St, Holyoke, MA",False,25013,Hampden,MA,39,15018.342585545664,MA
675 Canton St,,A,Existing,338432,122210.0,$11.83 - 14.46 (Est.),Warehouse,Norwood,63.89,1973.0,2006.0,338432.0,0.52,"30'0""",50'w x 40'd,43.0,1600-3000a/120-480v 3p 4w,CSX,City,,,122210.0,122210,"6/20'0""w x 18'0""h",ESFR,City,175.0,42.2019197,-71.1669245,MA,MA.csv,44,T4-MA-00044,existing,True,False,direct_existing_facility,122210.0,True,True,True,True,"675 Canton St, Norwood, MA",True,25021,Norfolk,MA,26,17207.645056127454,MA
23 Cape Rd,,A,Existing,205577,205577.0,$11.43 - 13.97 (Est.),Distribution,Mendon,0.0,2025.0,,205577.0,1.0,"32'0""",54'w x 52'd,34.0,,,Yes,2025 Tax @ $0.0586/sf,,205577.0,205577,2,ESFR,Yes,226.0,42.0994038,-71.5049678,MA,MA.csv,45,T4-MA-00045,existing,True,False,direct_existing_facility,205577.0,True,True,True,True,"23 Cape Rd, Mendon, MA",True,25027,Worcester,MA,16,20016.15286549168,MA
11 Centennial Dr,,B,Existing,232783,,$12.07 - 14.76 (Est.),Warehouse,Peabody,100.0,1984.0,,198475.0,0.53,"34'0""",,15.0,,,,2025 Tax @ $2.1948/sf,,,0,"14/14'0""w x 16'0""h",,,124.0,42.5215272,-70.9577923,MA,MA.csv,46,T4-MA-00046,existing,True,False,direct_existing_facility,0.0,False,False,True,True,"11 Centennial Dr, Peabody, MA",False,25009,Essex,MA,17,17316.30068456367,MA
345 Central St,,B,Existing,204077,,$8.36 - 10.22 (Est.),Warehouse,Leominster,100.0,1960.0,2004.0,97431.0,2.2,"16'0""",,7.0,Heavy,,City,2025 Tax @ $0.3860/sf,,,0,"9/9'0""w x 9'0""h",Wet,City,200.0,42.513504,-71.756124,MA,MA.csv,47,T4-MA-00047,existing,True,False,direct_existing_facility,0.0,False,False,True,True,"345 Central St, Leominster, MA",False,25027,Worcester,MA,16,20016.15286549168,MA
150 Charles Colton Rd,,B,Existing,200000,,$10.71 - 13.09 (Est.),Warehouse,Taunton,100.0,2016.0,,200000.0,1.25,"30'0""",47'w x 60'd,48.0,4000a/277-480v 3p 4w,,City,2025 Tax @ $2.2075/sf,,,0,"1/12'0""w x 12'0""h",ESFR,City,268.0,41.9463176,-71.1219013,MA,MA.csv,48,T4-MA-00048,existing,True,False,direct_existing_facility,0.0,False,False,True,True,"150 Charles Colton Rd, Taunton, MA",False,25005,Bristol,MA,33,14111.7303778516,MA
330 Chestnut St,,C,Existing,480548,,$3.16 - 3.54 (Est.),Warehouse,East Longmeadow,100.0,1940.0,,480548.0,,"40'0""",40'w x 40'd,27.0,4800a 3p,,Yes,2025 Tax @ $0.0546/sf,,,0,1,Yes,Yes,,42.0516883,-72.5231116,MA,MA.csv,49,T4-MA-00049,existing,True,False,direct_existing_facility,0.0,False,False,True,True,"330 Chestnut St, East Longmeadow, MA",False,25013,Hampden,MA,39,15018.342585545664,MA
134 Chestnut Hill Ave,L.P. Athol Corporation,C,Existing,360000,,$9.82 - 12.00 (Est.),Warehouse,Athol,100.0,1899.0,2020.0,120000.0,0.83,"14'0""",,7.0,13800a/600v 3p,Boston & Maine Railroad,City,2025 Tax @ $0.0038/sf,,,0,"2/12'0""w x 14'0""h",Dry,City,300.0,42.5969337,-72.2218398,MA,MA.csv,50,T4-MA-00050,existing,True,False,direct_existing_facility,0.0,False,False,True,True,L.P. Athol Corporation,False,25027,Worcester,MA,16,20016.15286549168,MA
500 Commander Shea Blvd,Boston Scientific,B,Existing,378000,,$13.01 - 15.91 (Est.),Warehouse,Quincy,100.0,1970.0,,443199.0,,,,,,,,2025 Tax @ $3.6508/sf,,,0,,,,,42.2951946,-71.0330112,MA,MA.csv,51,T4-MA-00051,existing,True,False,direct_existing_facility,0.0,False,False,True,True,Boston Scientific,False,25021,Norfolk,MA,26,17207.645056127454,MA
90 Commerce Way,Cartier Rice Dowd Bldg,C,Existing,273332,,$13.71 - 16.76 (Est.),Warehouse,Woburn,100.0,1974.0,,136666.0,1.1,"28'0""",25'w x 30'd,14.0,,,,,,,0,,Wet,,65.0,42.513938,-71.136272,MA,MA.csv,52,T4-MA-00052,existing,True,False,direct_existing_facility,0.0,False,False,True,True,Cartier Rice Dowd Bldg,False,25017,Middlesex,MA,16,37219.47229475793,MA
20 Computer Dr,,B,Existing,204000,92203.0,$11.32 - 13.84 (Est.),Distribution,Haverhill,100.0,1989.0,2019.0,204000.0,0.69,"33'0""",37'w x 40'd,26.0,2000a/208-480v,,City,2025 Tax @ $1.2414/sf,,92203.0,0,"1/12'0""w x 12'0""h",Wet,City,141.0,42.785991,-71.120837,MA,MA.csv,53,T4-MA-00053,existing,True,False,direct_existing_facility,92203.0,True,True,True,True,"20 Computer Dr, Haverhill, MA",True,25009,Essex,MA,17,17316.30068456367,MA
135 Constitution Blvd,,B,Existing,227000,377000.0,$11.99 - 14.65 (Est.),Warehouse,Franklin,100.0,1987.0,,113500.0,0.79,"30'0""",,34.0,,,City,2025 Tax @ $0.8753/sf,,227000.0,0,1,Yes,City,179.0,42.0542767,-71.3951992,MA,MA.csv,54,T4-MA-00054,existing,True,False,direct_existing_facility,377000.0,True,True,True,True,"135 Constitution Blvd, Franklin, MA",True,25021,Norfolk,MA,26,17207.645056127454,MA
300 Constitution Dr,,A,Existing,328104,84672.0,$10.71 - 13.09 (Est.),Distribution,Taunton,100.0,1998.0,,164052.0,2.03,"35'6""",42'w x 42'd,30.0,5000a 3p,,City,,,0.0,0,"1/10'0""w x 14'0""h",Wet,City,707.0,41.9445861,-71.1262041,MA,MA.csv,55,T4-MA-00055,existing,True,False,direct_existing_facility,84672.0,True,True,True,True,"300 Constitution Dr, Taunton, MA",True,25005,Bristol,MA,33,14111.7303778516,MA
25 Copeland Dr,,B,Existing,343400,,$10.60 - 12.96 (Est.),Warehouse,Ayer,100.0,1984.0,,343400.0,0.19,,,13.0,,,,2025 Tax @ $1.3934/sf,,,0,"3/8'0""w x 12'0""h",,,66.0,42.555115,-71.564647,MA,MA.csv,56,T4-MA-00056,existing,True,False,direct_existing_facility,0.0,False,False,True,True,"25 Copeland Dr, Ayer, MA",False,25017,Middlesex,MA,16,37219.47229475793,MA
1133 County St,,B,Existing,351320,,$8.83 - 10.80 (Est.),Warehouse,Taunton,100.0,1970.0,,351320.0,0.35,"24'0""",30'w x 40'd,19.0,Heavy,,,2025 Tax @ $1.3146/sf,,,0,"2/8'0""w x 11'0""h",Wet,,124.0,41.8721007,-71.0613015,MA,MA.csv,57,T4-MA-00057,existing,True,False,direct_existing_facility,0.0,False,False,True,True,"1133 County St, Taunton, MA",False,25005,Bristol,MA,33,14111.7303778516,MA
5 Cudworth Rd,,B,Existing,348400,,$7.47 - 9.13 (Est.),Warehouse,Webster,100.0,1969.0,,84000.0,0.29,"26'0""",40'w,,,,,2025 Tax @ $0.2476/sf,,,0,"1/18'0""w x 14'0""h",,Yes,50.0,42.0676892,-71.8587133,MA,MA.csv,58,T4-MA-00058,existing,True,False,direct_existing_facility,0.0,False,False,True,True,"5 Cudworth Rd, Webster, MA",False,25027,Worcester,MA,16,20016.15286549168,MA
1 D'Angelo Dr,,B,Existing,424079,,$11.11 - 13.58 (Est.),Distribution,Marlborough,100.0,1984.0,,424079.0,0.47,,,20.0,,,,2025 Tax @ $1.2056/sf,,,0,"9/18'0""w x 20'0""h",Wet,,200.0,42.316101,-71.583099,MA,MA.csv,59,T4-MA-00059,existing,True,False,direct_existing_facility,0.0,False,False,True,True,"1 D'Angelo Dr, Marlborough, MA",False,25017,Middlesex,MA,16,37219.47229475793,MA
100 Danton Dr,,B,Existing,291400,,$11.78 - 14.40 (Est.),Warehouse,Methuen,100.0,1985.0,1991.0,291400.0,2.87,"26'0""",40'w x 40'd,54.0,1600a/277-480v 3p 4w,,City,2025 Tax @ $1.2856/sf,,,0,"2/10'0""w x 12'0""h",Wet,City,120.0,42.7202563,-71.2107756,MA,MA.csv,60,T4-MA-00060,existing,True,False,direct_existing_facility,0.0,False,False,True,True,"100 Danton Dr, Methuen, MA",False,25009,Essex,MA,17,17316.30068456367,MA
150 Depot St,National DCP,A,Existing,252000,,$10.46 - 12.78 (Est.),Distribution,Bellingham,100.0,2005.0,,126000.0,1.84,,,42.0,,,,2025 Tax @ $3.2304/sf,,,0,"1/12'0""w x 12'0""h",Yes,,420.0,42.098955,-71.491644,MA,MA.csv,61,T4-MA-00061,existing,True,False,direct_existing_facility,0.0,False,False,True,True,National DCP,False,25021,Norfolk,MA,26,17207.645056127454,MA
3 Distribution Center Cir,Potpourri | Littleton,A,Existing,448759,,$10.42 - 12.74 (Est.),Distribution,Littleton,100.0,2015.0,,448759.0,,"32'0""",40'w,23.0,5000a/277-480v 3p 4w,,Yes,2025 Tax @ $2.9661/sf,,,0,"1/7'0""w x 9'0""h",ESFR,City,,42.5480994,-71.508191,MA,MA.csv,62,T4-MA-00062,existing,True,False,direct_existing_facility,0.0,False,False,True,True,Potpourri | Littleton,False,25017,Middlesex,MA,16,37219.47229475793,MA
875 East St,,C,Existing,484857,,$12.16 - 14.87 (Est.),Warehouse,Tewksbury,100.0,1972.0,,484857.0,,,,,,,,2025 Tax @ $1.3711/sf,,,0,,Wet,,,42.6157907,-71.1952735,MA,MA.csv,63,T4-MA-00063,existing,True,False,direct_existing_facility,0.0,False,False,True,True,"875 East St, Tewksbury, MA",False,25017,Middlesex,MA,16,37219.47229475793,MA
142 Elm St,,B,Existing,359938,,$6.98 - 8.53 (Est.),Warehouse,Hatfield,100.0,1968.0,,359938.0,0.72,"23'0""",,47.0,2000a/277-480v 3p 4w,,Yes,2025 Tax @ $0.4506/sf,,,0,,Wet,Yes,260.0,42.3639546,-72.6329714,MA,MA.csv,64,T4-MA-00064,existing,True,False,direct_existing_facility,0.0,False,False,True,True,"142 Elm St, Hatfield, MA",False,25015,Hampshire,MA,39,4829.097795020121,MA
1977 Fall River Ave,,B,Existing,248000,,$8.75 - 10.69 (Est.),Distribution,Seekonk,100.0,2017.0,,248000.0,,,,63.0,,,,2025 Tax @ $2.5892/sf,,,0,7,,,,41.7777014,-71.2971693,MA,MA.csv,65,T4-MA-00065,existing,True,False,direct_existing_facility,0.0,False,False,True,True,"1977 Fall River Ave, Seekonk, MA",False,25005,Bristol,MA,33,14111.7303778516,MA
305 Forbes Blvd,Zayre,A,Existing,429025,,$9.46 - 11.56 (Est.),Warehouse,Mansfield,100.0,1972.0,,429025.0,0.61,"28'0""",,136.0,2000a/277-480v,CSX,City,2025 Tax @ $1.2548/sf,,,0,"35/36'0""w x 24'0""h",Wet,City,600.0,42.0221426,-71.2435288,MA,MA.csv,66,T4-MA-00066,existing,True,False,direct_existing_facility,0.0,False,False,True,True,Zayre,False,25005,Bristol,MA,33,14111.7303778516,MA
440 Forbes Blvd,Toyota,C,Existing,235979,,$8.75 - 10.69 (Est.),Warehouse,Mansfield,100.0,1979.0,,217700.0,0.47,"26'0""",,15.0,,,City,,,,0,,,City,110.0,42.016267,-71.23497,MA,MA.csv,67,T4-MA-00067,existing,True,False,direct_existing_facility,0.0,False,False,True,True,Toyota,False,25005,Bristol,MA,33,14111.7303778516,MA
550 Forbes Blvd,,B,Existing,222357,222357.0,$8.75 - 10.69 (Est.),Distribution,Mansfield,0.0,1988.0,1995.0,222357.0,0.45,"28'0""",48'w x 48'd,16.0,2000a/480v 3p 4w,,Yes,2025 Tax @ $1.5552/sf,,222357.0,222357,3,Wet,Yes,100.0,42.0136501,-71.2371621,MA,MA.csv,68,T4-MA-00068,existing,True,False,direct_existing_facility,222357.0,True,True,True,True,"550 Forbes Blvd, Mansfield, MA",True,25005,Bristol,MA,33,14111.7303778516,MA
12 Forge Pky,,A,Existing,236331,,$11.57 - 14.14 (Est.),Warehouse,Franklin,100.0,1987.0,2017.0,236331.0,0.36,"28'0""",40'w x 40'd,22.0,1200a/277-480v 3p 3w,,City,2025 Tax @ $1.1207/sf,,,0,1,ESFR,City,86.0,42.0841597,-71.4340307,MA,MA.csv,69,T4-MA-00069,existing,True,False,direct_existing_facility,0.0,False,False,True,True,"12 Forge Pky, Franklin, MA",False,25021,Norfolk,MA,26,17207.645056127454,MA
580 Fort Pond Rd,,B,Existing,486820,486820.0,$8.99 - 10.98 (Est.),Distribution,Lancaster,100.0,1994.0,,486820.0,0.41,"34'0""",40'w x 37'd,26.0,3000a/480v 3p,,Yes,,,486820.0,0,"1/12'0""w x 14'0""h",ESFR,Well,200.0,42.5194885,-71.6744272,MA,MA.csv,70,T4-MA-00070,existing,True,False,direct_existing_facility,486820.0,True,True,True,True,"580 Fort Pond Rd, Lancaster, MA",True,25027,Worcester,MA,16,20016.15286549168,MA
241 Francis Ave,Bldg 1,A,Existing,352340,216565.0,$8.59 - 10.50 (Est.),Warehouse,Mansfield,100.0,1974.0,,352340.0,0.6,"32'0""",40'w x 70'd,21.0,3000a 3p,CSX,City,,,216565.0,0,"3/18'0""w x 18'0""h",ESFR,City,210.0,42.0393562,-71.2053339,MA,MA.csv,71,T4-MA-00071,existing,True,False,direct_existing_facility,216565.0,True,True,True,True,Bldg 1,True,25005,Bristol,MA,33,14111.7303778516,MA
15 Freedom Way,Northeast Logistics Center,A,Existing,260000,,$11.23 - 13.73 (Est.),Warehouse,Franklin,100.0,1993.0,,260000.0,0.67,"30'0""",48'w x 48'd,25.0,2000a/277-480v 3p 4w,,City,2025 Tax @ $0.7371/sf,,,0,"1/12'0""w x 14'0""h",ESFR,City,174.0,42.0517492,-71.3985475,MA,MA.csv,72,T4-MA-00072,existing,True,False,direct_existing_facility,0.0,False,False,True,True,Northeast Logistics Center,False,25021,Norfolk,MA,26,17207.645056127454,MA
20 Freedom Way,Franklin Commerce Center,A,Existing,234664,,$11.65 - 14.24 (Est.),Distribution,Franklin,100.0,2003.0,,232152.0,0.26,"36'0""",42'w x 42'd,32.0,2000a,,City,2025 Tax @ $1.3314/sf,,,0,2,ESFR,City,60.0,42.0518931,-71.3950782,MA,MA.csv,73,T4-MA-00073,existing,True,False,direct_existing_facility,0.0,False,False,True,True,Franklin Commerce Center,False,25021,Norfolk,MA,26,17207.645056127454,MA
135 Goddard Memorial Dr,T.J. Maxx,B,Existing,454893,,$8.20 - 10.02 (Est.),Distribution,Worcester,100.0,1983.0,,494000.0,,,,40.0,,,,2025 Tax @ $1.8159/sf,,,0,,,,100.0,42.255083,-71.8681907,MA,MA.csv,74,T4-MA-00074,existing,True,False,direct_existing_facility,0.0,False,False,True,True,T.J. Maxx,False,25027,Worcester,MA,16,20016.15286549168,MA
75 Green St,Dunn & Co.,C,Existing,250000,200000.0,$5.79 - 7.08 (Est.),Distribution,Clinton,20.0,1910.0,,50000.0,0.16,"16'0""",,6.0,,,,2025 Tax @ $0.1834/sf,,200000.0,200000,1,Wet,,40.0,42.4129124,-71.6790886,MA,MA.csv,75,T4-MA-00075,existing,True,False,direct_existing_facility,200000.0,True,True,True,True,Dunn & Co.,True,25027,Worcester,MA,16,20016.15286549168,MA
126 Grove St,"The Boston, Inc.",B,Existing,262596,,$11.85 - 14.48 (Est.),Warehouse,Franklin,100.0,1975.0,,262596.0,0.38,,,,,,,,,,0,,,,100.0,42.0752156,-71.4212962,MA,MA.csv,76,T4-MA-00076,existing,True,False,direct_existing_facility,0.0,False,False,True,True,"The Boston, Inc.",False,25021,Norfolk,MA,26,17207.645056127454,MA
50 Hampden Rd,,B,Existing,203998,133872.0,$9.63 - 11.77 (Est.),Warehouse,Mansfield,84.73,1978.0,,203998.0,0.98,"28'0""",31'w x 40'd,25.0,1200a/277-400v 3p,,City,2025 Tax @ $1.2573/sf,,133872.0,31149,5,ESFR,City,200.0,42.020402,-71.237742,MA,MA.csv,77,T4-MA-00077,existing,True,False,direct_existing_facility,133872.0,True,True,True,True,"50 Hampden Rd, Mansfield, MA",True,25005,Bristol,MA,33,14111.7303778516,MA
71 Hampden Rd,,B,Existing,204117,,$10.30 - 12.59 (Est.),Warehouse,Mansfield,100.0,1974.0,,204117.0,1.24,"24'0""",30'w x 40'd,24.0,400a/277-480v,CSX,City,2025 Tax @ $1.3583/sf,,,0,,Wet,City,167.0,42.018157,-71.235632,MA,MA.csv,78,T4-MA-00078,existing,True,False,direct_existing_facility,0.0,False,False,True,True,"71 Hampden Rd, Mansfield, MA",False,25005,Bristol,MA,33,14111.7303778516,MA
20 Harvard Rd,,B,Existing,305400,,$12.07 - 14.75 (Est.),Distribution,Littleton,100.0,1960.0,,75198.0,0.12,"29'0""",64'w x 37'd,17.0,9000a/277-480v,,,2025 Tax @ $0.0001/sf,,,0,"6/10'0""w x 14'0""h",,,35.0,42.5385212,-71.5152434,MA,MA.csv,79,T4-MA-00079,existing,True,False,direct_existing_facility,0.0,False,False,True,True,"20 Harvard Rd, Littleton, MA",False,25017,Middlesex,MA,16,37219.47229475793,MA
95 N Hatfield Rd,,B,Existing,445935,,$6.98 - 8.53 (Est.),Warehouse,Hatfield,100.0,1994.0,,445935.0,,"15'0""",,100.0,,,,2025 Tax @ $1.1637/sf,,,0,"6/8'0""w x 10'0""h",Wet,,,42.3977456,-72.620878,MA,MA.csv,80,T4-MA-00080,existing,True,False,direct_existing_facility,0.0,False,False,True,True,"95 N Hatfield Rd, Hatfield, MA",False,25015,Hampshire,MA,39,4829.097795020121,MA
211 Highland St,,A,Existing,412500,412500.0,$10.93 - 13.35 (Est.),Distribution,East Bridgewater,0.0,2023.0,,412500.0,0.6,"36'0""",56'w x 45'd,57.0,4000a,,Yes,2025 Tax @ $1.6245/sf,,412500.0,412500,"2/12'0""w x 12'0""h",ESFR,Yes,340.0,42.0543332,-70.9569752,MA,MA.csv,81,T4-MA-00081,existing,True,False,direct_existing_facility,412500.0,True,True,True,True,"211 Highland St, East Bridgewater, MA",True,25023,Plymouth,MA,33,10176.999496748813,MA
1505 W Housatonic St,,B,Existing,251640,,$9.22 - 11.27 (Est.),Distribution,Pittsfield,100.0,1990.0,,251640.0,0.35,"25'0""",35'w x 40'd,24.0,1600a/277-480v 3p 4w,,City,2025 Tax @ $0.8244/sf,,,0,"1/12'0""w x 14'0""h",ESFR,City,90.0,42.4297371,-73.3152232,MA,MA.csv,82,T4-MA-00082,existing,True,False,direct_existing_facility,0.0,False,False,True,True,"1505 W Housatonic St, Pittsfield, MA",False,25003,Berkshire,MA,39,5613.684180692198,MA
115 E Howard St,,A,Existing,448000,,$11.61 - 14.19 (Est.),Distribution,Quincy,100.0,1999.0,,448000.0,,,,25.0,,,,,,,0,,,,,42.2398312,-70.9748856,MA,MA.csv,83,T4-MA-00083,existing,True,False,direct_existing_facility,0.0,False,False,True,True,"115 E Howard St, Quincy, MA",False,25021,Norfolk,MA,26,17207.645056127454,MA
15 Independence Dr,,A,Existing,370545,,$10.44 - 12.76 (Est.),Warehouse,Ayer,100.0,2000.0,,370545.0,0.84,"30'0""",50'w x 50'd,57.0,4000a 3p 4w,,City,,,,0,"1/12'0""w x 16'0""h",ESFR,City,311.0,42.5487426,-71.599778,MA,MA.csv,84,T4-MA-00084,existing,True,False,direct_existing_facility,0.0,False,False,True,True,"15 Independence Dr, Ayer, MA",False,25017,Middlesex,MA,16,37219.47229475793,MA
50 Independence Dr,,A,Existing,236505,50187.0,$10.75 - 13.14 (Est.),Warehouse,Ayer,100.0,1997.0,2000.0,236505.0,1.0,"37'0""",40'w x 40'd,35.0,4000a/277-480v,,City,,,0.0,0,"1/8'0""w x 14'0""h",Wet,City,236.0,42.5467364,-71.5942004,MA,MA.csv,85,T4-MA-00085,existing,True,False,direct_existing_facility,50187.0,True,True,True,True,"50 Independence Dr, Ayer, MA",True,25017,Middlesex,MA,16,37219.47229475793,MA
2 Industrial Ave,,C,Existing,314396,,$12.69 - 15.51 (Est.),Warehouse,Lowell,100.0,1964.0,,3450.0,,"8'4""",,2.0,100-200a/120-480v,,City,,,,0,"4/9'0""w x 12'0""h",Wet,City,100.0,42.616184,-71.322974,MA,MA.csv,86,T4-MA-00086,existing,True,False,direct_existing_facility,0.0,False,False,True,True,"2 Industrial Ave, Lowell, MA",False,25017,Middlesex,MA,16,37219.47229475793,MA
108 Industrial Dr,,B,Existing,262747,,$6.33 - 7.07 (Est.),Warehouse,East Longmeadow,100.0,1980.0,,262747.0,,,,,,,,2025 Tax @ $0.6154/sf,,,0,,,,,42.0461668,-72.5284131,MA,MA.csv,87,T4-MA-00087,existing,True,False,direct_existing_facility,0.0,False,False,True,True,"108 Industrial Dr, East Longmeadow, MA",False,25013,Hampden,MA,39,15018.342585545664,MA
5 Industrial Dr W,,B,Existing,276750,,$8.19 - 10.01 (Est.),Warehouse,South Deerfield,100.0,1978.0,2007.0,276750.0,1.16,,,5.0,,,,2025 Tax @ $0.3654/sf,,,0,"1/10'0""w x 12'0""h",,,322.0,42.466365,-72.6048795,MA,MA.csv,88,T4-MA-00088,existing,True,False,direct_existing_facility,0.0,False,False,True,True,"5 Industrial Dr W, South Deerfield, MA",False,25011,Franklin,MA,10,3042.4379551992297,MA
12 Industrial Rd,Bldg 1,A,Existing,347012,20575.0,$9.27 - 11.33 (Est.),Warehouse,Milford,94.07,1999.0,,347012.0,0.37,"32'0""",48'w x 48'd,24.0,3200a/277-480v 3p,,City,2025 Tax @ $0.5468/sf,,20575.0,20575,"1/8'0""w x 10'0""h",ESFR,City,128.0,42.1396798,-71.4933992,MA,MA.csv,89,T4-MA-00089,existing,True,False,direct_existing_facility,20575.0,True,True,True,True,Bldg 1,True,25027,Worcester,MA,16,20016.15286549168,MA
46 Industrial Rd,,C,Existing,240000,,$7.06 - 8.62 (Est.),Warehouse,Leominster,100.0,1962.0,2008.0,120000.0,0.41,"17'0""",30'w x 31'd,20.0,600a/480v,,City,2025 Tax @ $0.3318/sf,,,0,"2/10'0""w x 12'0""h",Yes,City,80.0,42.5505355,-71.7469178,MA,MA.csv,90,T4-MA-00090,existing,True,False,direct_existing_facility,0.0,False,False,True,True,"46 Industrial Rd, Leominster, MA",False,25027,Worcester,MA,16,20016.15286549168,MA
10 Industrial Way,,C,Existing,274050,,$9.78 - 11.96 (Est.),Warehouse,Amesbury,100.0,1983.0,,274050.0,1.46,"23'0""",30'w x 40'd,18.0,2000a/480v 3p,,City,2025 Tax @ $0.7319/sf,,,0,"2/10'0""w x 12'0""h",Wet,City,400.0,42.8549625,-70.9063838,MA,MA.csv,91,T4-MA-00091,existing,True,False,direct_existing_facility,0.0,False,False,True,True,"10 Industrial Way, Amesbury, MA",False,25009,Essex,MA,17,17316.30068456367,MA
80 Industrial Way,,B,Existing,211966,16500.0,$13.23 - 16.17 (Est.),Distribution,Wilmington,92.22,1969.0,2002.0,211966.0,0.9,"32'0""",40'w x 45'd,26.0,1200a/208-480v 3p 4w,,City,2025 Tax @ $1.9335/sf,,16500.0,16500,"3/10'0""w x 12'0""h",Wet,City,190.0,42.5324446,-71.1394582,MA,MA.csv,92,T4-MA-00092,existing,True,False,direct_existing_facility,16500.0,True,False,True,True,"80 Industrial Way, Wilmington, MA",False,25017,Middlesex,MA,16,37219.47229475793,MA
311 Industry Ave,,B,Existing,262200,,$7.57 - 9.25 (Est.),Warehouse,Springfield,100.0,1968.0,,262200.0,0.38,"30'0""",,2.0,400a/208-480v,CSX,City,2025 Tax @ $1.0389/sf,,,0,"2/8'0""w x 10'0""h",Wet,City,100.0,42.1355505,-72.543297,MA,MA.csv,93,T4-MA-00093,existing,True,False,direct_existing_facility,0.0,False,False,True,True,"311 Industry Ave, Springfield, MA",False,25013,Hampden,MA,39,15018.342585545664,MA
10 International Way,,A,Existing,265036,,$12.12 - 14.81 (Est.),Warehouse,Lawrence,100.0,1997.0,,265036.0,0.56,"36'0""",,50.0,,,,2025 Tax @ $1.1933/sf,,,0,,,,150.0,42.690277,-71.181383,MA,MA.csv,94,T4-MA-00094,existing,True,False,direct_existing_facility,0.0,False,False,True,True,"10 International Way, Lawrence, MA",False,25009,Essex,MA,17,17316.30068456367,MA
400 Iron Horse Park,,C,Existing,219164,,$10.78 - 13.17 (Est.),Warehouse,North Billerica,100.0,1913.0,,90000.0,,"24'0""",27'w x 81'd,,2000a/600v,,,,,,0,8,Wet,,,42.584262,-71.267501,MA,MA.csv,95,T4-MA-00095,existing,True,False,direct_existing_facility,0.0,False,False,True,True,"400 Iron Horse Park, North Billerica, MA",False,25017,Middlesex,MA,16,37219.47229475793,MA
64 Jackson Rd,,B,Existing,355000,,$8.99 - 10.98 (Est.),Warehouse,Devens,100.0,2001.0,,355000.0,0.11,"25'0""",,6.0,480v 3p,,City,,,,0,"1/14'0""w x 16'0""h",Wet,City,40.0,42.5353003,-71.6261301,MA,MA.csv,96,T4-MA-00096,existing,True,False,direct_existing_facility,0.0,False,False,True,True,"64 Jackson Rd, Devens, MA",False,25027,Worcester,MA,16,20016.15286549168,MA
63 Jackson St,,B,Existing,356032,50000.0,$6.47 - 7.90 (Est.),Warehouse,Holyoke,85.96,1923.0,,50000.0,0.11,,,8.0,,,Yes,2025 Tax @ $0.1204/sf,,50000.0,50000,,Wet,Yes,32.0,42.1977234,-72.6137006,MA,MA.csv,97,T4-MA-00097,existing,True,False,direct_existing_facility,50000.0,True,True,True,True,"63 Jackson St, Holyoke, MA",True,25013,Hampden,MA,39,15018.342585545664,MA
225 John Hancock Rd,,C,Existing,315896,,$8.75 - 10.69 (Est.),Warehouse,Taunton,100.0,2000.0,,315896.0,0.66,,,,,,,2025 Tax @ $2.6739/sf,,,0,"4/12'0""w x 14'0""h",,,210.0,41.94411,-71.136971,MA,MA.csv,98,T4-MA-00098,existing,True,False,direct_existing_facility,0.0,False,False,True,True,"225 John Hancock Rd, Taunton, MA",False,25005,Bristol,MA,33,14111.7303778516,MA
275 John Hancock Rd,,A,Existing,239923,92093.0,$10.69 - 13.07 (Est.),Distribution,Taunton,61.62,2001.0,,238846.0,0.98,"30'0""",50'w x 42'd,38.0,2500a/277-480v 3p 4w,,City,2025 Tax @ $1.7906/sf,,92093.0,92093,3,ESFR,City,234.0,41.9421609,-71.1355325,MA,MA.csv,99,T4-MA-00099,existing,True,False,direct_existing_facility,92093.0,True,True,True,True,"275 John Hancock Rd, Taunton, MA",True,25005,Bristol,MA,33,14111.7303778516,MA
630 John Hancock Rd,,A,Existing,357806,,$8.75 - 10.69 (Est.),Warehouse,Taunton,100.0,2002.0,,178903.0,0.88,,,25.0,,,,2025 Tax @ $2.9890/sf,,,0,"3/18'0""w x 20'0""h",,,315.0,41.931108,-71.125884,MA,MA.csv,100,T4-MA-00100,existing,True,False,direct_existing_facility,0.0,False,False,True,True,"630 John Hancock Rd, Taunton, MA",False,25005,Bristol,MA,33,14111.7303778516,MA
800 John Quincy Adams Rd,,A,Existing,350326,,$8.17 - 9.98 (Est.),Distribution,Taunton,100.0,1985.0,2001.0,343756.0,0.93,"30'0""",32'w x 40'd,47.0,1800a/277-480v 3p,,City,2025 Tax @ $1.9828/sf,,,0,2,ESFR,City,319.0,41.954016,-71.132554,MA,MA.csv,101,T4-MA-00101,existing,True,False,direct_existing_facility,0.0,False,False,True,True,"800 John Quincy Adams Rd, Taunton, MA",False,25005,Bristol,MA,33,14111.7303778516,MA
656 Joseph Warner Blvd,,B,Existing,242000,,$8.75 - 10.69 (Est.),Warehouse,Taunton,100.0,1975.0,2018.0,242000.0,1.15,"20'0""",30'w x 40'd,15.0,,,City,2025 Tax @ $1.1289/sf,,,0,,Wet,City,280.0,41.8709194,-71.1225108,MA,MA.csv,102,T4-MA-00102,existing,True,False,direct_existing_facility,0.0,False,False,True,True,"656 Joseph Warner Blvd, Taunton, MA",False,25005,Bristol,MA,33,14111.7303778516,MA
100 Justin Dr,,C,Existing,262858,262858.0,$12.74 - 15.57 (Est.),Distribution,Chelsea,0.0,1980.0,,131429.0,1.17,"16'0""",25'w x 20'd,14.0,4000a/277v 3p 4w,,,2025 Tax @ $0.0305/sf,,262858.0,262858,,,City,308.0,42.393383,-71.046946,MA,MA.csv,103,T4-MA-00103,existing,True,False,direct_existing_facility,262858.0,True,True,True,True,"100 Justin Dr, Chelsea, MA",True,25025,Suffolk,MA,26,18377.400661801446,MA
140 Laurel St,Bldg A,A,Existing,468996,468996.0,$8.70 - 10.64 (Est.),Warehouse,East Bridgewater,100.0,1972.0,,468996.0,1.04,"29'0""",32'w x 40'd,76.0,3000a/480v 3p 4w,CSX,City,2025 Tax @ $0.5831/sf,,468996.0,0,4,Wet,City,487.0,42.0255094,-70.9777602,MA,MA.csv,104,T4-MA-00104,existing,True,False,direct_existing_facility,468996.0,True,True,True,True,Bldg A,True,25023,Plymouth,MA,33,10176.999496748813,MA
42 Leonard St,Building 9,A,Existing,220000,,$8.75 - 10.69 (Est.),Warehouse,Norton,100.0,2023.0,,220000.0,0.91,"32'0""",,47.0,,,,2025 Tax @ $0.0222/sf,,,0,2,Wet,,200.0,41.9849147,-71.1428708,MA,MA.csv,105,T4-MA-00105,existing,True,False,direct_existing_facility,0.0,False,False,True,True,Building 9,False,25005,Bristol,MA,33,14111.7303778516,MA
21 Lincoln St,,A,Existing,350000,350000.0,$10.76 - 13.15 (Est.),Warehouse,West Bridgewater,0.0,2024.0,,350000.0,1.13,"36'0""",40'w x 52'd,71.0,4000a/480v,,City,2025 Tax @ $1.6398/sf,,350000.0,350000,"2/14'0""w x 16'0""h",ESFR,City,395.0,42.0102215,-71.0376501,MA,MA.csv,106,T4-MA-00106,existing,True,False,direct_existing_facility,350000.0,True,True,True,True,"21 Lincoln St, West Bridgewater, MA",True,25023,Plymouth,MA,33,10176.999496748813,MA
57 Littlefield St,,B,Existing,383225,294969.0,$8.85 - 10.81 (Est.),Warehouse,Avon,23.03,1974.0,,191613.0,0.4,"24'0""",30'w x 30'd,59.0,1200a/277-480v 3p 4w,,Septic Field,2025 Tax @ $0.0237/sf,,294969.0,294969,"1/10'0""w x 14'0""h",Wet,City,152.0,42.1267425,-71.0290043,MA,MA.csv,107,T4-MA-00107,existing,True,False,direct_existing_facility,294969.0,True,True,True,True,"57 Littlefield St, Avon, MA",True,25021,Norfolk,MA,26,17207.645056127454,MA
323 Lockhouse Rd,,B,Existing,231193,,$9.61 - 11.75 (Est.),Warehouse,Westfield,100.0,1971.0,,231193.0,0.67,"24'0""",24'w x 50'd,23.0,1200a/277-480v 3p,,Yes,,,,0,1,Wet,Yes,241.0,42.1598873,-72.7475156,MA,MA.csv,108,T4-MA-00108,existing,True,False,direct_existing_facility,0.0,False,False,True,True,"323 Lockhouse Rd, Westfield, MA",False,25013,Hampden,MA,39,15018.342585545664,MA
66 Lyman St,,B,Existing,346050,,$10.89 - 13.31 (Est.),Warehouse,Northborough,100.0,1987.0,,173025.0,,"22'0""",,10.0,1600a/277-480v 3p,,,2025 Tax @ $0.6237/sf,,,0,"2/14'0""w x 16'0""h",Wet,,100.0,42.312679,-71.6157878,MA,MA.csv,109,T4-MA-00109,existing,True,False,direct_existing_facility,0.0,False,False,True,True,"66 Lyman St, Northborough, MA",False,25027,Worcester,MA,16,20016.15286549168,MA
9 Main St,,C,Existing,480930,,$7.80 - 9.53 (Est.),Warehouse,Sutton,100.0,1900.0,,45000.0,,"11'0""",,4.0,,,,2025 Tax @ $0.0751/sf,,,0,5,Wet,,,42.093274,-71.745619,MA,MA.csv,110,T4-MA-00110,existing,True,False,direct_existing_facility,0.0,False,False,True,True,"9 Main St, Sutton, MA",False,25027,Worcester,MA,16,20016.15286549168,MA
288 Main St,,C,Existing,285000,,$10.10 - 12.35 (Est.),Warehouse,Monson,100.0,1901.0,,95000.0,0.7,"25'0""",60'w x 24'd,6.0,1000a/480v 3p,,City,2025 Tax @ $0.0332/sf,,,0,12,Wet,City,200.0,42.0933068,-72.310935,MA,MA.csv,111,T4-MA-00111,existing,True,False,direct_existing_facility,0.0,False,False,True,True,"288 Main St, Monson, MA",False,25013,Hampden,MA,39,15018.342585545664,MA
355 Main St,,B,Existing,354295,,$10.07 - 12.31 (Est.),Warehouse,Whitinsville,100.0,1940.0,,354295.0,1.16,"32'0""",,32.0,1200a/600v 3p,,City,2025 Tax @ $0.6466/sf,,,0,6,ESFR,City,411.0,42.1114291,-71.6781147,MA,MA.csv,112,T4-MA-00112,existing,True,False,direct_existing_facility,0.0,False,False,True,True,"355 Main St, Whitinsville, MA",False,25027,Worcester,MA,16,20016.15286549168,MA
613 Main St,,B,Existing,398140,,$12.84 - 15.69 (Est.),Warehouse,Wilmington,100.0,1985.0,1994.0,398140.0,0.85,"24'0""",50'w x 30'd,45.0,,,City,,,,0,1,Wet,City,330.0,42.5411745,-71.1694075,MA,MA.csv,113,T4-MA-00113,existing,True,False,direct_existing_facility,0.0,False,False,True,True,"613 Main St, Wilmington, MA",False,25017,Middlesex,MA,16,37219.47229475793,MA
400 Manley St,,C,Existing,216400,127523.0,$9.85 - 12.03 (Est.),Warehouse,West Bridgewater,41.07,1986.0,,216400.0,1.02,"28'0""",32'w x 40'd,17.0,1600a/277-480v,,Septic Field,2025 Tax @ $1.7268/sf,,127523.0,127523,1,Wet,,221.0,42.0381979,-71.0590313,MA,MA.csv,114,T4-MA-00114,existing,True,False,direct_existing_facility,127523.0,True,True,True,True,"400 Manley St, West Bridgewater, MA",True,25023,Plymouth,MA,33,10176.999496748813,MA
192 Mansfield Ave,Norton 1,B,Existing,347500,,$9.94 - 12.15 (Est.),Distribution,Norton,100.0,1998.0,,347500.0,0.52,"30'0""",52'w x 60'd,30.0,2000a/277-480v 3p,,,2025 Tax @ $1.9770/sf,,,0,1,ESFR,,182.0,41.9831807,-71.2147402,MA,MA.csv,115,T4-MA-00115,existing,True,False,direct_existing_facility,0.0,False,False,True,True,Norton 1,False,25005,Bristol,MA,33,14111.7303778516,MA
25 Maple St,Building III,A,Existing,412363,412363.0,$12.95 - 15.83 (Est.),Distribution,Stoughton,0.0,2026.0,,412363.0,0.12,"42'0""",54'w x 56'd,77.0,,,Yes,,,412363.0,412363,4,ESFR,Yes,50.0,42.1401962,-71.0756129,MA,MA.csv,116,T4-MA-00116,existing,True,False,direct_existing_facility,412363.0,True,True,True,True,Building III,True,25021,Norfolk,MA,26,17207.645056127454,MA
25 Maple St,Building I,B,Existing,275062,275062.0,$8.03 - 9.81 (Est.),Distribution,Stoughton,0.0,2026.0,,275062.0,,"36'0""",50'w x 56'd,51.0,,,,,,275062.0,275062,2,ESFR,,,42.1400978,-71.074649,MA,MA.csv,117,T4-MA-00117,existing,True,False,direct_existing_facility,275062.0,True,True,True,True,Building I,True,25021,Norfolk,MA,26,17207.645056127454,MA
355 Maple St,,A,Existing,253656,,$11.60 - 14.18 (Est.),Warehouse,Bellingham,100.0,2015.0,,253656.0,0.59,,,22.0,,,,,,,0,,,,150.0,42.0956156,-71.4517001,MA,MA.csv,118,T4-MA-00118,existing,True,False,direct_existing_facility,0.0,False,False,True,True,"355 Maple St, Bellingham, MA",False,25021,Norfolk,MA,26,17207.645056127454,MA
419 Maple St,,B,Existing,489950,,$10.03 - 12.26 (Est.),Distribution,Bellingham,100.0,1988.0,,489950.0,0.33,"36'0""",,6.0,,,,,,,0,17,,,164.0,42.0896463,-71.4539884,MA,MA.csv,119,T4-MA-00119,existing,True,False,direct_existing_facility,0.0,False,False,True,True,"419 Maple St, Bellingham, MA",False,25021,Norfolk,MA,26,17207.645056127454,MA
34 Market St,,A,Existing,222000,,$9.52 - 11.64 (Est.),Distribution,Everett,100.0,2022.0,,222000.0,,,,,,,,2025 Tax @ $3.5846/sf,,,0,,ESFR,,,42.3984246,-71.0514816,MA,MA.csv,120,T4-MA-00120,existing,True,False,direct_existing_facility,0.0,False,False,True,True,"34 Market St, Everett, MA",False,25017,Middlesex,MA,16,37219.47229475793,MA
100-180 Meadow Rd,Bldg 100,B,Existing,450919,,$11.99 - 14.65 (Est.),Warehouse,Boston,74.73,1970.0,1987.0,450919.0,0.25,"32'0""",42'w x 42'd,163.0,800a/277-480v 3p,CSX,City,,,,113945,1,ESFR,City,112.0,42.231069,-71.133125,MA,MA.csv,121,T4-MA-00121,existing,True,False,direct_existing_facility,113945.0,True,True,True,True,Bldg 100,True,25025,Suffolk,MA,26,18377.400661801446,MA
160 Mechanic St,,A,Existing,345000,32400.0,$10.09 - 12.33 (Est.),Distribution,Bellingham,100.0,2021.0,,345000.0,0.66,"36'0""",50'w x 54'd,70.0,4000a/277-480v,,,2025 Tax @ $2.8278/sf,,0.0,0,3,ESFR,,277.0,42.0862811,-71.4604956,MA,MA.csv,122,T4-MA-00122,existing,True,False,direct_existing_facility,32400.0,True,True,True,True,"160 Mechanic St, Bellingham, MA",True,25021,Norfolk,MA,26,17207.645056127454,MA
190 Mechanic St,,B,Existing,210924,,$10.58 - 12.93 (Est.),Warehouse,Bellingham,100.0,2005.0,,210924.0,0.78,"32'0""",40'w x 40'd,22.0,2500-4000a/277-480v 3p 4w,,Septic Field,2025 Tax @ $2.6692/sf,,,0,,ESFR,City,164.0,42.0843238,-71.4556308,MA,MA.csv,123,T4-MA-00123,existing,True,False,direct_existing_facility,0.0,False,False,True,True,"190 Mechanic St, Bellingham, MA",False,25021,Norfolk,MA,26,17207.645056127454,MA
55 Merrill Rd,,B,Existing,250000,,$8.17 - 9.98 (Est.),Warehouse,Pittsfield,100.0,1968.0,1989.0,250000.0,0.8,"57'0""",,2.0,,,,,,,0,8,Wet,,,42.4542505,-73.2274457,MA,MA.csv,124,T4-MA-00124,existing,True,False,direct_existing_facility,0.0,False,False,True,True,"55 Merrill Rd, Pittsfield, MA",False,25003,Berkshire,MA,39,5613.684180692198,MA
1 Middle St,Algonquin Mill,C,Existing,250000,,$8.49 - 10.38 (Est.),Warehouse,Fall River,100.0,1890.0,,83333.0,0.82,"15'0""",,,,,,2025 Tax @ $0.0940/sf,,,0,"4/12'0""w x 12'0""h",,,240.0,41.695095,-71.177913,MA,MA.csv,125,T4-MA-00125,existing,True,False,direct_existing_facility,0.0,False,False,True,True,Algonquin Mill,False,25005,Bristol,MA,33,14111.7303778516,MA
8 Mill St,,C,Existing,314666,,$7.79 - 9.52 (Est.),Warehouse,Dudley,100.0,1960.0,,60333.0,0.62,"25'0""",,3.0,,,City,2025 Tax @ $0.0007/sf,,,0,"1/8'0""w x 12'0""h",Yes,City,112.0,42.0500506,-71.8892936,MA,MA.csv,126,T4-MA-00126,existing,True,False,direct_existing_facility,0.0,False,False,True,True,"8 Mill St, Dudley, MA",False,25027,Worcester,MA,16,20016.15286549168,MA
22 Millbury St,,C,Existing,200000,,$7.82 - 9.56 (Est.),Warehouse,Auburn,100.0,1978.0,,200000.0,0.59,,,9.0,,,,2025 Tax @ $0.0032/sf,,,0,,,,60.0,42.1991609,-71.82645,MA,MA.csv,127,T4-MA-00127,existing,True,False,direct_existing_facility,0.0,False,False,True,True,"22 Millbury St, Auburn, MA",False,25027,Worcester,MA,16,20016.15286549168,MA
26 Millbury St,,A,Existing,210000,,$10.13 - 12.38 (Est.),Distribution,Auburn,100.0,2008.0,,210000.0,0.2,"30'0""",40'w x 40'd,39.0,2000a/480v 3p,,City,2025 Tax @ $1.6540/sf,,,0,"1/12'0""w x 16'0""h",ESFR,City,100.0,42.198489,-71.8231332,MA,MA.csv,128,T4-MA-00128,existing,True,False,direct_existing_facility,0.0,False,False,True,True,"26 Millbury St, Auburn, MA",False,25027,Worcester,MA,16,20016.15286549168,MA
28 Millbury St,,C,Existing,225629,,$6.62 - 8.09 (Est.),Warehouse,Auburn,100.0,1972.0,1984.0,225629.0,0.66,"15'0""",25'w x 30'd,3.0,1600a/277-480v 3p,,City,,,,0,,Wet,City,150.0,42.1970065,-71.8237536,MA,MA.csv,129,T4-MA-00129,existing,True,False,direct_existing_facility,0.0,False,False,True,True,"28 Millbury St, Auburn, MA",False,25027,Worcester,MA,16,20016.15286549168,MA
1 National St,,B,Existing,300000,,$6.97 - 8.52 (Est.),Distribution,Milford,100.0,1973.0,2019.0,300000.0,0.94,"25'0""",30'w x 24'd,74.0,4000a/480v 3p,B & N Railroad,,,,,0,"2/10'0""w x 12'0""h",,,282.0,42.127213,-71.5137883,MA,MA.csv,130,T4-MA-00130,existing,True,False,direct_existing_facility,0.0,False,False,True,True,"1 National St, Milford, MA",False,25027,Worcester,MA,16,20016.15286549168,MA
90 Nemco Way,,B,Existing,216000,,$11.33 - 13.84 (Est.),Warehouse,Ayer,100.0,1988.0,,216000.0,1.02,"28'0""",40'w x 60'd,18.0,4000a/480v 3p 4w,,City,2025 Tax @ $2.3310/sf,,,0,"2/8'0""w x 14'0""h",Wet,City,221.0,42.5667107,-71.5235923,MA,MA.csv,131,T4-MA-00131,existing,True,False,direct_existing_facility,0.0,False,False,True,True,"90 Nemco Way, Ayer, MA",False,25017,Middlesex,MA,16,37219.47229475793,MA
7 New England Produce Ctr,New England Produce Center,C,Existing,202256,,$13.64 - 16.67 (Est.),Distribution,Chelsea,100.0,,,101128.0,,,,,,,,,,,0,,,,,42.3971068,-71.0517976,MA,MA.csv,132,T4-MA-00132,existing,True,False,direct_existing_facility,0.0,False,False,True,True,New England Produce Center,False,25025,Suffolk,MA,26,18377.400661801446,MA
45 Norfolk St,,B,Existing,205400,,$8.75 - 10.69 (Est.),Warehouse,Mansfield,100.0,1982.0,1998.0,205400.0,1.23,,,9.0,,,,2025 Tax @ $1.9979/sf,,,0,,,,132.0,42.017596,-71.231692,MA,MA.csv,133,T4-MA-00133,existing,True,False,direct_existing_facility,0.0,False,False,True,True,"45 Norfolk St, Mansfield, MA",False,25005,Bristol,MA,33,14111.7303778516,MA
306 Northern Ave,Bldg 53,C,Existing,213534,,$16.79 - 20.52 (Est.),Warehouse,Boston,100.0,1979.0,,71178.0,0.65,"30'0""",,18.0,,,,,,,0,"5/8'0""w x 14'0""h",,,138.0,42.347193,-71.034093,MA,MA.csv,134,T4-MA-00134,existing,True,False,direct_existing_facility,0.0,False,False,True,True,Bldg 53,False,25025,Suffolk,MA,26,18377.400661801446,MA
560 Oak St,,B,Existing,391703,,$7.76 - 9.48 (Est.),Warehouse,Brockton,100.0,1960.0,1988.0,250000.0,1.09,"20'0""",35'w x 35'd,64.0,3000a/480v 3p 4w,,City,2025 Tax @ $0.6116/sf,,,0,"1/8'0""w x 10'0""h",Wet,City,382.0,42.1006876,-71.0501029,MA,MA.csv,135,T4-MA-00135,existing,True,False,direct_existing_facility,0.0,False,False,True,True,"560 Oak St, Brockton, MA",False,25023,Plymouth,MA,33,10176.999496748813,MA
390 Oakland St,,A,Existing,255159,,$8.75 - 10.69 (Est.),Warehouse,Mansfield,100.0,1986.0,,255159.0,,"28'0""",46'w x 36'd,38.0,,,City,2025 Tax @ $1.0902/sf,,,0,,Wet,City,,42.0439249,-71.2109386,MA,MA.csv,136,T4-MA-00136,existing,True,False,direct_existing_facility,0.0,False,False,True,True,"390 Oakland St, Mansfield, MA",False,25005,Bristol,MA,33,14111.7303778516,MA
8 Papermill Rd,Warehouse Facility,C,Existing,231579,,$7.83 - 9.57 (Est.),Warehouse,Erving,100.0,1903.0,,220000.0,,"20'0""",,8.0,,,City,,,,0,"4/8'0""w x 13'0""h",Wet,City,50.0,42.5789709,-72.4855573,MA,MA.csv,137,T4-MA-00137,existing,True,False,direct_existing_facility,0.0,False,False,True,True,Warehouse Facility,False,25011,Franklin,MA,10,3042.4379551992297,MA
125 Paridon St,,B,Existing,300000,,$4.27 - 5.22 (Est.),Warehouse,Springfield,100.0,1921.0,,300000.0,,"30'0""",,5.0,,,,,,,0,1,,,40.0,42.0866681,-72.53677,MA,MA.csv,138,T4-MA-00138,existing,True,False,direct_existing_facility,0.0,False,False,True,True,"125 Paridon St, Springfield, MA",False,25013,Hampden,MA,39,15018.342585545664,MA
100 Pine Hill Dr,FedEx Distribution Center,A,Existing,361952,,$6.72 - 8.22 (Est.),Distribution,Boylston,100.0,2018.0,,361952.0,1.66,"32'0""",,77.0,,,,2025 Tax @ $0.3649/sf,,,0,11,ESFR,,604.0,42.3267413,-71.730021,MA,MA.csv,139,T4-MA-00139,existing,True,False,direct_existing_facility,0.0,False,False,True,True,FedEx Distribution Center,False,25027,Worcester,MA,16,20016.15286549168,MA
175 Pioneer Dr,,C,Existing,230382,,$6.90 - 8.43 (Est.),Warehouse,Leominster,100.0,1970.0,,115191.0,0.22,"26'0""",,8.0,1500-2500a/277-480v,,Yes,2025 Tax @ $0.6010/sf,,,0,"2/14'0""w x 16'0""h",Wet,Yes,50.0,42.5329765,-71.7068053,MA,MA.csv,140,T4-MA-00140,existing,True,False,direct_existing_facility,0.0,False,False,True,True,"175 Pioneer Dr, Leominster, MA",False,25027,Worcester,MA,16,20016.15286549168,MA
142 Pleasant St,,C,Existing,205000,,$8.20 - 10.03 (Est.),Warehouse,Easthampton,100.0,1900.0,,29285.0,0.2,,,7.0,,,,2025 Tax @ $0.0419/sf,,,0,,,,30.0,42.2734839,-72.6615348,MA,MA.csv,141,T4-MA-00141,existing,True,False,direct_existing_facility,0.0,False,False,True,True,"142 Pleasant St, Easthampton, MA",False,25015,Hampshire,MA,39,4829.097795020121,MA
1-17 River St,,C,Existing,376098,,$8.19 - 10.01 (Est.),Warehouse,Erving,100.0,1912.0,,125366.0,6.65,"35'0""",,9.0,600v 3p,,,,,,0,"2/10'0""w x 12'0""h",,,2500.0,42.5813035,-72.4983319,MA,MA.csv,142,T4-MA-00142,existing,True,False,direct_existing_facility,0.0,False,False,True,True,"1-17 River St, Erving, MA",False,25011,Franklin,MA,10,3042.4379551992297,MA
130 Riverdale St,Riverdale Mills,B,Existing,299021,,$7.80 - 9.53 (Est.),Warehouse,Northbridge,100.0,,,149510.0,,,,,,,,2025 Tax @ $0.2578/sf,,,0,,,,,42.1389231,-71.6410013,MA,MA.csv,143,T4-MA-00143,existing,True,False,direct_existing_facility,0.0,False,False,True,True,Riverdale Mills,False,25027,Worcester,MA,16,20016.15286549168,MA
440 Riverside Ave,,B,Existing,206954,,$12.64 - 15.45 (Est.),Distribution,Medford,100.0,1983.0,,206954.0,1.13,,,21.0,,,,2025 Tax @ $2.7353/sf,,,0,"5/10'0""w x 15'0""h",Wet,,210.0,42.412877,-71.088432,MA,MA.csv,144,T4-MA-00144,existing,True,False,direct_existing_facility,0.0,False,False,True,True,"440 Riverside Ave, Medford, MA",False,25017,Middlesex,MA,16,37219.47229475793,MA
72 Salem Rd N,,B,Existing,273988,,$12.06 - 14.74 (Est.),Warehouse,Billerica,100.0,1983.0,,273988.0,0.88,"24'0""",,19.0,1200a 3p,Guilford Rail,City,2025 Tax @ $0.9280/sf,,,0,8,ESFR,City,209.0,42.5752762,-71.2712967,MA,MA.csv,145,T4-MA-00145,existing,True,False,direct_existing_facility,0.0,False,False,True,True,"72 Salem Rd N, Billerica, MA",False,25017,Middlesex,MA,16,37219.47229475793,MA
34 Sanborn St,,C,Existing,314558,,$4.21 - 5.15 (Est.),Warehouse,Gardner,100.0,1958.0,,78640.0,0.45,"12'0""",20'w x 20'd,13.0,Heavy,,City,2025 Tax @ $0.0030/sf,,,0,"2/12'0""w x 14'0""h",Wet,City,140.0,42.5753218,-71.9881282,MA,MA.csv,146,T4-MA-00146,existing,True,False,direct_existing_facility,0.0,False,False,True,True,"34 Sanborn St, Gardner, MA",False,25027,Worcester,MA,16,20016.15286549168,MA
30 Scales Ln,,C,Existing,325800,,$10.60 - 12.96 (Est.),Warehouse,Townsend,100.0,1972.0,,162900.0,0.12,,,25.0,,,,,,,0,"2/8'0""w x 12'0""h",,,40.0,42.669919,-71.720708,MA,MA.csv,147,T4-MA-00147,existing,True,False,direct_existing_facility,0.0,False,False,True,True,"30 Scales Ln, Townsend, MA",False,25017,Middlesex,MA,16,37219.47229475793,MA
211 Servistar Industrial Way,"TruServ, Inc.",C,Existing,456700,,$6.64 - 6.96 (Est.),Warehouse,Westfield,100.0,1974.0,,456700.0,0.66,"25'0""",,48.0,1200a/277-480v,,City,2025 Tax @ $0.0080/sf,,,0,"2/12'0""w x 14'0""h",Wet,City,300.0,42.1585228,-72.7442497,MA,MA.csv,148,T4-MA-00148,existing,True,False,direct_existing_facility,0.0,False,False,True,True,"TruServ, Inc.",False,25013,Hampden,MA,39,15018.342585545664,MA
139 Shuman Ave,,B,Existing,265167,,$8.98 - 10.97 (Est.),Warehouse,Stoughton,100.0,1984.0,1995.0,265167.0,0.65,"36'0""",30'w x 40'd,24.0,1200a/480v,,,2025 Tax @ $1.2908/sf,,,0,"2/10'0""w x 12'0""h",ESFR,,170.0,42.1155856,-71.0663257,MA,MA.csv,149,T4-MA-00149,existing,True,False,direct_existing_facility,0.0,False,False,True,True,"139 Shuman Ave, Stoughton, MA",False,25021,Norfolk,MA,26,17207.645056127454,MA
3 Silver City Dr,Bldg 3,A,Existing,248453,,$8.75 - 10.69 (Est.),Distribution,Taunton,100.0,2024.0,,248453.0,1.21,"32'0""",50'w x 56'd,38.0,3000a/277-480v,,,2025 Tax @ $1.1551/sf,,,0,2,ESFR,,301.0,41.8624568,-71.0525811,MA,MA.csv,150,T4-MA-00150,existing,True,False,direct_existing_facility,0.0,False,False,True,True,Bldg 3,False,25005,Bristol,MA,33,14111.7303778516,MA
81 South St,,C,Existing,242935,,$11.77 - 14.39 (Est.),Warehouse,West Warren,100.0,1919.0,1968.0,121468.0,0.38,,,4.0,1200-4000a/277-600v 3p,,City,2025 Tax @ $0.0815/sf,,,0,"2/12'0""w x 12'0""h",Wet,City,92.0,42.2109741,-72.2319785,MA,MA.csv,151,T4-MA-00151,existing,True,False,direct_existing_facility,0.0,False,False,True,True,"81 South St, West Warren, MA",False,25027,Worcester,MA,16,20016.15286549168,MA
26 Southbridge St,Polar Corp,C,Existing,285437,,$7.09 - 8.67 (Est.),Distribution,Auburn,100.0,1965.0,2009.0,285437.0,0.6,"30'0""",,53.0,1000a 3p 4w,,City,2025 Tax @ $1.4180/sf,,,0,"1/12'0""w x 14'0""h",Wet,City,170.0,42.2288969,-71.8221837,MA,MA.csv,152,T4-MA-00152,existing,True,False,direct_existing_facility,0.0,False,False,True,True,Polar Corp,False,25027,Worcester,MA,16,20016.15286549168,MA
725 Southbridge St,,C,Existing,373868,,$6.48 - 7.92 (Est.),Warehouse,Worcester,100.0,1890.0,,62311.0,,"20'0""",,4.0,Heavy,,,,,,0,1,Wet,City,,42.241644,-71.812509,MA,MA.csv,153,T4-MA-00153,existing,True,False,direct_existing_facility,0.0,False,False,True,True,"725 Southbridge St, Worcester, MA",False,25027,Worcester,MA,16,20016.15286549168,MA
480 Sprague St,,B,Existing,228560,,$9.51 - 11.63 (Est.),Distribution,Dedham,100.0,1960.0,2012.0,228560.0,0.4,"22'0""",40'w x 25'd,71.0,2000a/277-480v 3p 4w,,City,2025 Tax @ $2.0710/sf,,,0,1,Wet,City,92.0,42.2333196,-71.1412307,MA,MA.csv,154,T4-MA-00154,existing,True,False,direct_existing_facility,0.0,False,False,True,True,"480 Sprague St, Dedham, MA",False,25021,Norfolk,MA,26,17207.645056127454,MA
243 Stafford St,Building 9,C,Existing,200000,,$5.62 - 6.87 (Est.),Warehouse,Worcester,100.0,1909.0,2002.0,100000.0,0.35,"26'0""",40'w x 33'd,4.0,480-600v 3p,CSX,,,,,0,"4/8'0""w x 12'0""h",,,70.0,42.232374,-71.854213,MA,MA.csv,155,T4-MA-00155,existing,True,False,direct_existing_facility,0.0,False,False,True,True,Building 9,False,25027,Worcester,MA,16,20016.15286549168,MA
243 Stafford St,,B,Existing,203291,,$7.64 - 9.34 (Est.),Warehouse,Worcester,100.0,1909.0,2002.0,203291.0,0.12,"26'0""",40'w x 33'd,10.0,480-600v 3p,CSX,,,,,0,6,,,24.0,42.2334391,-71.8534115,MA,MA.csv,156,T4-MA-00156,existing,True,False,direct_existing_facility,0.0,False,False,True,True,"243 Stafford St, Worcester, MA",False,25027,Worcester,MA,16,20016.15286549168,MA
1030 Stafford St,,C,Existing,222615,,$7.80 - 9.53 (Est.),Warehouse,Rochdale,100.0,1800.0,,126486.0,0.45,,,2.0,,,,2025 Tax @ $0.0002/sf,,,0,"7/14'0""w x 14'0""h",,,100.0,42.1965541,-71.9044472,MA,MA.csv,157,T4-MA-00157,existing,True,False,direct_existing_facility,0.0,False,False,True,True,"1030 Stafford St, Rochdale, MA",False,25027,Worcester,MA,16,20016.15286549168,MA
506-510 State Rd,,C,Existing,237784,,$9.22 - 11.27 (Est.),Warehouse,North Adams,100.0,1880.0,1900.0,59446.0,0.42,"18'0""",,4.0,,,,2025 Tax @ $0.2541/sf,,,0,"3/12'0""w x 14'0""h",,,100.0,42.697982,-73.151191,MA,MA.csv,158,T4-MA-00158,existing,True,False,direct_existing_facility,0.0,False,False,True,True,"506-510 State Rd, North Adams, MA",False,25003,Berkshire,MA,39,5613.684180692198,MA
80 Stockwell Dr,,B,Existing,241454,,$11.18 - 13.66 (Est.),Distribution,Avon,100.0,1986.0,1998.0,241454.0,1.73,"22'0""",40'w x 32'd,17.0,1000a/480v 3p,,Septic Field,2025 Tax @ $0.0162/sf,,,0,"2/12'0""w x 14'0""h",Wet,,325.0,42.1326671,-71.0662436,MA,MA.csv,159,T4-MA-00159,existing,True,False,direct_existing_facility,0.0,False,False,True,True,"80 Stockwell Dr, Avon, MA",False,25021,Norfolk,MA,26,17207.645056127454,MA
9 Stuart Rd,,B,Existing,299260,,$12.36 - 15.11 (Est.),Warehouse,Chelmsford,100.0,1974.0,,299260.0,1.1,"28'0""",11'w x 40'd,27.0,3000a/277-480v,,Septic Field,2025 Tax @ $0.6334/sf,,,0,,Yes,City,330.0,42.5891149,-71.3242363,MA,MA.csv,160,T4-MA-00160,existing,True,False,direct_existing_facility,0.0,False,False,True,True,"9 Stuart Rd, Chelmsford, MA",False,25017,Middlesex,MA,16,37219.47229475793,MA
647 Summer St,,B,Existing,360000,,$16.23 - 19.83 (Est.),Warehouse,Boston,100.0,1960.0,1990.0,360000.0,0.17,"20'0""",,35.0,Heavy,,City,,,,0,"10/9'0""w x 12'0""h",Yes,City,60.0,42.3411476,-71.0442401,MA,MA.csv,161,T4-MA-00161,existing,True,False,direct_existing_facility,0.0,False,False,True,True,"647 Summer St, Boston, MA",False,25025,Suffolk,MA,26,18377.400661801446,MA
140 Summit St,,A,Existing,461604,461604.0,$11.57 - 14.14 (Est.),Distribution,Peabody,100.0,1997.0,,153868.0,0.65,"37'6""",,24.0,,,,,,0.0,0,"1/12'0""w x 14'0""h",Wet,,300.0,42.5209542,-70.9488986,MA,MA.csv,162,T4-MA-00162,existing,True,False,direct_existing_facility,461604.0,True,True,True,True,"140 Summit St, Peabody, MA",True,25009,Essex,MA,17,17316.30068456367,MA
100 Tech Dr,Moderna Technology Campus (MTC) North,A,Existing,202918,,$12.27 - 15.00 (Est.),Warehouse,Norwood,100.0,1969.0,2007.0,100216.0,2.79,"20'0""",,7.0,1500-3000a/277-480v,,Yes,,,,0,Yes,Wet,Yes,566.0,42.2099273,-71.2022799,MA,MA.csv,163,T4-MA-00163,existing,True,False,direct_existing_facility,0.0,False,False,True,True,Moderna Technology Campus (MTC) North,False,25021,Norfolk,MA,26,17207.645056127454,MA
1000 Technology Center Dr,,A,Existing,332676,,$11.66 - 14.25 (Est.),Warehouse,Stoughton,100.0,1987.0,,332676.0,1.42,"34'0""",29'w x 44'd,42.0,3000a/480v 3p,,,,,,0,"1/10'0""w x 12'0""h",Wet,,474.0,42.1488878,-71.0622494,MA,MA.csv,164,T4-MA-00164,existing,True,False,direct_existing_facility,0.0,False,False,True,True,"1000 Technology Center Dr, Stoughton, MA",False,25021,Norfolk,MA,26,17207.645056127454,MA
100 Terminal St,Mystic Pier #1,C,Existing,267809,,$13.05 - 15.95 (Est.),Warehouse,Charlestown,100.0,1950.0,1987.0,66952.0,0.08,"25'0""",,16.0,,,City,,,,0,"2/8'0""w x 12'0""h",Yes,City,2000.0,42.382888,-71.055421,MA,MA.csv,165,T4-MA-00165,existing,True,False,direct_existing_facility,0.0,False,False,True,True,Mystic Pier #1,False,25025,Suffolk,MA,26,18377.400661801446,MA
200 Terminal St,,C,Existing,382664,,$12.94 - 15.82 (Est.),Warehouse,Charlestown,100.0,1930.0,,98749.0,,"24'0""",20'w x 30'd,19.0,480v 3p 4w,,,2025 Tax @ $0.4181/sf,,,0,"3/8'0""w x 12'0""h",Yes,,74.0,42.383074,-71.050839,MA,MA.csv,166,T4-MA-00166,existing,True,False,direct_existing_facility,0.0,False,False,True,True,"200 Terminal St, Charlestown, MA",False,25025,Suffolk,MA,26,18377.400661801446,MA
22 Town Farm Rd,,C,Existing,268000,,$7.21 - 8.82 (Est.),Warehouse,Westford,100.0,1967.0,,268000.0,,"27'0""",,11.0,480-600v 3p 4w,,Septic Field,,,,0,1,Wet,City,,42.5823616,-71.4825424,MA,MA.csv,167,T4-MA-00167,existing,True,False,direct_existing_facility,0.0,False,False,True,True,"22 Town Farm Rd, Westford, MA",False,25017,Middlesex,MA,16,37219.47229475793,MA
325 Turnpike Rd,,A,Existing,369063,,$11.20 - 13.69 (Est.),Warehouse,Southborough,100.0,1971.0,2004.0,341033.0,0.55,"27'2""",50'w x 25'd,34.0,1200a/277-480v 3p 4w,,Septic Field,2025 Tax @ $1.6259/sf,,,0,"2/16'0""w x 14'0""h",ESFR,,208.0,42.2925707,-71.5479464,MA,MA.csv,168,T4-MA-00168,existing,True,False,direct_existing_facility,0.0,False,False,True,True,"325 Turnpike Rd, Southborough, MA",False,25027,Worcester,MA,16,20016.15286549168,MA
1 United Dr,,B,Existing,315000,,$12.03 - 14.70 (Est.),Warehouse,West Bridgewater,100.0,1987.0,,157500.0,0.96,"25'0""",41'w x 43'd,28.0,1600a/227-480v,,Septic Field,2025 Tax @ $1.3697/sf,,,0,"6/9'0""w x 12'0""h",Yes,,327.0,42.0196624,-71.054334,MA,MA.csv,169,T4-MA-00169,existing,True,False,direct_existing_facility,0.0,False,False,True,True,"1 United Dr, West Bridgewater, MA",False,25023,Plymouth,MA,33,10176.999496748813,MA
346 University Ave,,C,Existing,200880,,$12.09 - 14.77 (Est.),Warehouse,Westwood,100.0,1969.0,1989.0,200880.0,1.0,"23'0""",40'w x 32'd,14.0,3000a/480v 3p 4w,Conrail,City,2025 Tax @ $1.2850/sf,,,0,7,Wet,City,200.0,42.1999889,-71.1539051,MA,MA.csv,170,T4-MA-00170,existing,True,False,direct_existing_facility,0.0,False,False,True,True,"346 University Ave, Westwood, MA",False,25021,Norfolk,MA,26,17207.645056127454,MA
625 University Ave,,B,Existing,439863,221606.0,$10.52 - 12.86 (Est.),Warehouse,Norwood,77.51,1969.0,1989.0,439863.0,0.29,"21'0""",48'w x 38'd,89.0,3200a/480v 3p 4w,,City,2025 Tax @ $0.0070/sf,,221606.0,98913,"6/14'0""w x 14'0""h",Wet,City,127.0,42.2007437,-71.1687374,MA,MA.csv,171,T4-MA-00171,existing,True,False,direct_existing_facility,221606.0,True,True,True,True,"625 University Ave, Norwood, MA",True,25021,Norfolk,MA,26,17207.645056127454,MA
975 University Ave,,A,Existing,363108,,$11.76 - 14.37 (Est.),Warehouse,Norwood,100.0,1998.0,2002.0,337166.0,1.18,"32'0""",50'w x 50'd,41.0,3000a/480v,,City,2025 Tax @ $0.0206/sf,,,0,,ESFR,City,430.0,42.206304,-71.1748931,MA,MA.csv,172,T4-MA-00172,existing,True,False,direct_existing_facility,0.0,False,False,True,True,"975 University Ave, Norwood, MA",False,25021,Norfolk,MA,26,17207.645056127454,MA
1 Ups Rd,1,B,Existing,336708,,$11.67 - 14.27 (Est.),Distribution,Chelmsford,100.0,1986.0,,336708.0,,,,,,,,,,,0,,,,,42.5985387,-71.3100995,MA,MA.csv,173,T4-MA-00173,existing,True,False,direct_existing_facility,0.0,False,False,True,True,1,False,25017,Middlesex,MA,16,37219.47229475793,MA
34 Valley View Ave,,C,Existing,233369,,$5.88 - 6.46 (Est.),Distribution,Russell,100.0,1914.0,,233369.0,,,,,,,,2025 Tax @ $0.0020/sf,,,0,,,,,42.16432,-72.8243999,MA,MA.csv,174,T4-MA-00174,existing,True,False,direct_existing_facility,0.0,False,False,True,True,"34 Valley View Ave, Russell, MA",False,25013,Hampden,MA,39,15018.342585545664,MA
1 Wamsutta St,,C,Existing,240000,,$9.07 - 11.08 (Est.),Warehouse,New Bedford,100.0,1868.0,,60800.0,0.28,,,5.0,,,,2025 Tax @ $0.2517/sf,,,0,,,,68.0,41.649981,-70.92581,MA,MA.csv,175,T4-MA-00175,existing,True,False,direct_existing_facility,0.0,False,False,True,True,"1 Wamsutta St, New Bedford, MA",False,25005,Bristol,MA,33,14111.7303778516,MA
176 S Washington St,,B,Existing,212672,,$8.71 - 10.65 (Est.),Warehouse,Norton,100.0,1986.0,,209643.0,0.48,"28'0""",46'w x 46'd,20.0,1200a/277-480v 3p 4w,,Septic Field,2025 Tax @ $0.0154/sf,,,0,2,ESFR,City,100.0,41.965246,-71.142486,MA,MA.csv,176,T4-MA-00176,existing,True,False,direct_existing_facility,0.0,False,False,True,True,"176 S Washington St, Norton, MA",False,25005,Bristol,MA,33,14111.7303778516,MA
202 S Washington St,Plantation Products,C,Existing,200000,,$8.75 - 10.69 (Est.),Warehouse,Norton,100.0,1997.0,2006.0,200000.0,0.23,"26'0""",,9.0,,,,,,,0,,,,46.0,41.9631374,-71.1399032,MA,MA.csv,177,T4-MA-00177,existing,True,False,direct_existing_facility,0.0,False,False,True,True,Plantation Products,False,25005,Bristol,MA,33,14111.7303778516,MA
175-245 W Water St,Carcross,B,Existing,200000,,$8.75 - 10.69 (Est.),Warehouse,Taunton,100.0,1976.0,,100000.0,1.31,"14'0""",,3.0,,,,2025 Tax @ $0.0552/sf,,,0,"5/8'0""w x 10'0""h",Yes,,90.0,41.885034,-71.091123,MA,MA.csv,178,T4-MA-00178,existing,True,False,direct_existing_facility,0.0,False,False,True,True,Carcross,False,25005,Bristol,MA,33,14111.7303778516,MA
100 Wearguard Dr,,C,Existing,229000,,$6.55 - 8.01 (Est.),Warehouse,Hanover,100.0,1970.0,1986.0,114500.0,0.26,"30'0""",,22.0,600a/277-480v,,Septic Field,2025 Tax @ $0.5807/sf,,,0,5,,Yes,60.0,42.111631,-70.8691068,MA,MA.csv,179,T4-MA-00179,existing,True,False,direct_existing_facility,0.0,False,False,True,True,"100 Wearguard Dr, Hanover, MA",False,25023,Plymouth,MA,33,10176.999496748813,MA
336 Weir St,,C,Existing,200000,13000.0,$4.63 - 5.66 (Est.),Warehouse,Taunton,93.5,1898.0,1968.0,200000.0,,"18'0""",,14.0,6500a/240-420v 3p,,City,,,13000.0,13000,"6/10'0""w x 12'0""h",Wet,City,,41.8915873,-71.089529,MA,MA.csv,180,T4-MA-00180,existing,True,False,direct_existing_facility,13000.0,True,False,True,True,"336 Weir St, Taunton, MA",False,25005,Bristol,MA,33,14111.7303778516,MA
560 West St,,A,Existing,350000,,$9.01 - 11.01 (Est.),Distribution,Mansfield,100.0,2009.0,,350000.0,3.5,"37'0""",47'w x 54'd,65.0,2000a/480v 3p,,Yes,,,,0,,,Yes,,42.0238542,-71.2460788,MA,MA.csv,181,T4-MA-00181,existing,True,False,direct_existing_facility,0.0,False,False,True,True,"560 West St, Mansfield, MA",False,25005,Bristol,MA,33,14111.7303778516,MA
431 Westminster St,,B,Existing,200000,,$6.90 - 8.43 (Est.),Warehouse,Fitchburg,100.0,1900.0,,100000.0,0.58,"12'0""",,5.0,9999a/480v 3p,,City,2025 Tax @ $0.0017/sf,,,0,1,Dry,City,117.0,42.5677778,-71.8433296,MA,MA.csv,182,T4-MA-00182,existing,True,False,direct_existing_facility,0.0,False,False,True,True,"431 Westminster St, Fitchburg, MA",False,25027,Worcester,MA,16,20016.15286549168,MA
2189 Westover Rd,,C,Existing,217000,,$6.47 - 7.91 (Est.),Distribution,Chicopee,100.0,1984.0,1989.0,217000.0,0.46,"28'0""",,32.0,4000a/27-480v,,City,2025 Tax @ $1.2036/sf,,,0,"1/10'0""w x 12'0""h",Wet,City,100.0,42.1876202,-72.5544151,MA,MA.csv,183,T4-MA-00183,existing,True,False,direct_existing_facility,0.0,False,False,True,True,"2189 Westover Rd, Chicopee, MA",False,25013,Hampden,MA,39,15018.342585545664,MA
361 Whitney Ave,,C,Existing,205000,,$5.99 - 7.33 (Est.),Distribution,Holyoke,100.0,1984.0,1988.0,205000.0,4.29,,,,,,,,,,0,,Yes,,880.0,42.1675109,-72.6478287,MA,MA.csv,184,T4-MA-00184,existing,True,False,direct_existing_facility,0.0,False,False,True,True,"361 Whitney Ave, Holyoke, MA",False,25013,Hampden,MA,39,15018.342585545664,MA
21 Wilbraham St,,C,Existing,336259,,$10.02 - 12.25 (Est.),Warehouse,Palmer,100.0,1906.0,,336259.0,0.09,"21'0""",52'w x 25'd,13.0,400a/600v,,City,,,,0,1,Wet,City,29.0,42.1632697,-72.3477483,MA,MA.csv,185,T4-MA-00185,existing,True,False,direct_existing_facility,0.0,False,False,True,True,"21 Wilbraham St, Palmer, MA",False,25013,Hampden,MA,39,15018.342585545664,MA
415 Wildwood Ave,,B,Existing,244710,244710.0,$12.41 - 15.17 (Est.),Warehouse,Woburn,0.0,1980.0,,244710.0,1.66,"30'0""",30'w x 50'd,30.0,2000a 3p,,,2025 Tax @ $1.4151/sf,,244710.0,244710,"2/12'0""w x 14'0""h",Wet,,410.0,42.495897,-71.137361,MA,MA.csv,186,T4-MA-00186,existing,True,False,direct_existing_facility,244710.0,True,True,True,True,"415 Wildwood Ave, Woburn, MA",True,25017,Middlesex,MA,16,37219.47229475793,MA
481 Wildwood Ave,Tighe,A,Existing,200000,,$14.36 - 17.55 (Est.),Distribution,Woburn,100.0,1975.0,,200000.0,0.36,"26'0""",,30.0,,,,2025 Tax @ $1.0578/sf,,,0,"2/10'0""w x 13'0""h",Yes,,75.0,42.497084,-71.135964,MA,MA.csv,187,T4-MA-00187,existing,True,False,direct_existing_facility,0.0,False,False,True,True,Tighe,False,25017,Middlesex,MA,16,37219.47229475793,MA
135 Will Dr,,B,Existing,415796,,$8.43 - 10.31 (Est.),Distribution,Canton,100.0,1977.0,,409414.0,0.66,"22'0""",32'w x 40'd,45.0,3000a/277-480v,,City,2025 Tax @ $2.7766/sf,,,0,"5/24'0""w x 16'0""h",Wet,City,400.0,42.1447122,-71.1251778,MA,MA.csv,188,T4-MA-00188,existing,True,False,direct_existing_facility,0.0,False,False,True,True,"135 Will Dr, Canton, MA",False,25021,Norfolk,MA,26,17207.645056127454,MA
27 Yankee Candle Way,,A,Existing,256728,,$8.19 - 10.01 (Est.),Distribution,South Deerfield,100.0,2000.0,,256728.0,1.33,,,80.0,,,,2025 Tax @ $0.7041/sf,,,0,"4/8'0""w x 10'0""h",,,340.0,42.4946942,-72.6138658,MA,MA.csv,189,T4-MA-00189,existing,True,False,direct_existing_facility,0.0,False,False,True,True,"27 Yankee Candle Way, South Deerfield, MA",False,25011,Franklin,MA,10,3042.4379551992297,MA
147 N Main St,,B,Existing,286867,,$8.75 - 10.69 (Est.),Distribution,South Deerfield,100.0,2002.0,,143433.0,0.55,,,,Heavy,,,2025 Tax @ $0.5481/sf,,,0,,Wet,,150.0,42.4881222,-72.6080282,MA,MA.csv,190,T4-MA-00190,existing,True,False,direct_existing_facility,0.0,False,False,True,True,"147 N Main St, South Deerfield, MA",False,25011,Franklin,MA,10,3042.4379551992297,MA
1 Performance Blvd,Performance Food Group Facility,B,Existing,215776,,$5.94 - 7.26 (Est.),Warehouse,Springfield,100.0,2007.0,,107888.0,,,,,,,,2025 Tax @ $3.1740/sf,,,0,,,,,42.1341912,-72.5481749,MA,MA.csv,191,T4-MA-00191,existing,True,False,direct_existing_facility,0.0,False,False,True,True,Performance Food Group Facility,False,25013,Hampden,MA,39,15018.342585545664,MA
2145 Roosevelt Ave,Big Y Fresh & Local Distribution Center,A,Existing,425000,,$6.39 - 7.01 (Est.),Distribution,Springfield,100.0,2020.0,,425000.0,,,,,,,,2025 Tax @ $2.3492/sf,,,0,,,,,42.1415008,-72.5473719,MA,MA.csv,192,T4-MA-00192,existing,True,False,direct_existing_facility,0.0,False,False,True,True,Big Y Fresh & Local Distribution Center,False,25013,Hampden,MA,39,15018.342585545664,MA
180 Servistar Industrial Way,,B,Existing,218633,,$5.80 - 6.21 (Est.),Warehouse,Westfield,100.0,2005.0,,208444.0,,,,,,,,,,,0,,,,,42.1559133,-72.7376367,MA,MA.csv,193,T4-MA-00193,existing,True,False,direct_existing_facility,0.0,False,False,True,True,"180 Servistar Industrial Way, Westfield, MA",False,25013,Hampden,MA,39,15018.342585545664,MA
210 Servistar Industrial Way,,A,Existing,242152,,$10.07 - 12.31 (Est.),Warehouse,Westfield,100.0,2009.0,,242152.0,,,,34.0,,,,2025 Tax @ $0.9073/sf,,,0,,,,38.0,42.1553531,-72.7428253,MA,MA.csv,194,T4-MA-00194,existing,True,False,direct_existing_facility,0.0,False,False,True,True,"210 Servistar Industrial Way, Westfield, MA",False,25013,Hampden,MA,39,15018.342585545664,MA
100 Springdale Rd,,B,Existing,275103,,$6.15 - 6.76 (Est.),Warehouse,Westfield,100.0,1945.0,,275103.0,,,,,,,,2025 Tax @ $0.5352/sf,,,0,,,,,42.1417678,-72.7250467,MA,MA.csv,195,T4-MA-00195,existing,True,False,direct_existing_facility,0.0,False,False,True,True,"100 Springdale Rd, Westfield, MA",False,25013,Hampden,MA,39,15018.342585545664,MA
227 Washington St,,C,Existing,224466,,$12.56 - 15.35 (Est.),Warehouse,Peabody,100.0,1920.0,,224466.0,,,,,,,,,,,0,,,,,42.5212976,-70.9373682,MA,MA.csv,196,T4-MA-00196,existing,True,False,direct_existing_facility,0.0,False,False,True,True,"227 Washington St, Peabody, MA",False,25009,Essex,MA,17,17316.30068456367,MA
